[{"id":"osm_node_256344802","nom":"San Juan Xar","latitude":43.21042,"longitude":-1.70784,"ville":"Igantzi"},{"id":"osm_node_352698466","nom":"Église","latitude":42.81409,"longitude":-1.47066},{"id":"osm_node_477228719","nom":"Crypte","latitude":43.09745,"longitude":-0.05804},{"id":"osm_node_621184111","nom":"Église","latitude":42.96906,"longitude":1.14085},{"id":"osm_node_660510824","nom":"Parroquia de Antonio María Clavet","latitude":42.82694,"longitude":-1.66509},{"id":"osm_node_895954213","nom":"Église","latitude":42.89825,"longitude":-1.6829},{"id":"osm_node_957789923","nom":"Iglesia de La Inmaculada","latitude":42.80859,"longitude":-1.6371},{"id":"osm_node_1128682749","nom":"Centre Paroissial","latitude":43.6113,"longitude":1.33949,"ville":"Colomiers","codePostal":"31770","adresse":"Rue Gilet"},{"id":"osm_node_1344836893","nom":"Chapelle de l'Hôpital de Purpan","latitude":43.60871,"longitude":1.3977},{"id":"osm_node_1371989155","nom":"Église","latitude":43.67997,"longitude":1.3672},{"id":"osm_node_1456246380","nom":"Notre-Dame du Bon Accueil","latitude":43.7862,"longitude":1.35907},{"id":"osm_node_1661254421","nom":"Chapelle de l'Hôpital","latitude":45.33659,"longitude":1.0515},{"id":"osm_node_1674809433","nom":"Chapelle de la communauté des Béatitudes","latitude":43.1744,"longitude":-0.26312},{"id":"osm_node_1680760306","nom":"Iglesia de Candanchú","latitude":42.78812,"longitude":-0.52795},{"id":"osm_node_1790678849","nom":"Fontaine Saint-Ferréol","latitude":43.22584,"longitude":1.28718},{"id":"osm_node_1885688855","nom":"Chapelle Saint-Jacques","latitude":44.18715,"longitude":0.62576},{"id":"osm_node_2192326383","nom":"Chapelle de l'Hôpital","latitude":44.10507,"longitude":1.08815},{"id":"osm_node_2498134640","nom":"Iglesia Regina Pacis","latitude":42.82592,"longitude":-1.61441,"ville":"Burlada/Burlata","codePostal":"31600"},{"id":"osm_node_2585009090","nom":"Iglesia de Capuchinos San Antonio","latitude":42.81264,"longitude":-1.63895},{"id":"osm_node_2585009818","nom":"Parroquia de San Miguel de Orcoyen","latitude":42.82476,"longitude":-1.70885},{"id":"osm_node_2671550439","nom":"Église Adventiste du 7e Jour","latitude":44.18899,"longitude":0.6208,"ville":"Agen","codePostal":"47000","adresse":"Rue de Lille"},{"id":"osm_node_2714921275","nom":"Parroquia de Nuestra Señora de la Paz","latitude":42.81084,"longitude":-1.65429},{"id":"osm_node_2947610668","nom":"Parroquia San Vicente de Paúl","latitude":42.81633,"longitude":-1.6606},{"id":"osm_node_2947659525","nom":"Parroquia de San Alberto Magno","latitude":42.81436,"longitude":-1.66099},{"id":"osm_node_2947662849","nom":"Capilla de la Clínica Universidad de Navarra","latitude":42.80558,"longitude":-1.66345},{"id":"osm_node_2982819684","nom":"Santa Anna","latitude":42.83267,"longitude":0.7189},{"id":"osm_node_3059312946","nom":"Clocher Saint-Jean","latitude":46.15657,"longitude":-1.15586,"ville":"La Rochelle","codePostal":"17000"},{"id":"osm_node_3089764355","nom":"gite de l'ancien carmel","latitude":44.1064,"longitude":1.08262,"codePostal":"82200","adresse":"Sente du Calvaire","telephone":"+33 5 63 04 62 21; +33 9 64 48 71 99","siteWeb":"https://www.lanciencarmelmoissac.com/"},{"id":"osm_node_3148148159","nom":"Chapelle Saint-Maur","latitude":43.30449,"longitude":-0.3701},{"id":"osm_node_3148148161","nom":"Chapelle du couvent des Réparatrices","latitude":43.29638,"longitude":-0.35844},{"id":"osm_node_3443672720","nom":"Ermita de Sant Cerat","latitude":42.78501,"longitude":0.69001},{"id":"osm_node_3696198282","nom":"Ermita de Santa Engracia (Ruinas)","latitude":42.85505,"longitude":-1.10997,"ville":"Esparza de Salazar"},{"id":"osm_node_3707725300","nom":"Santa Engrazia ermita","latitude":43.1322,"longitude":-1.50614,"ville":"Elizondo"},{"id":"osm_node_3716088776","nom":"Crucero","latitude":42.80837,"longitude":-1.48976,"ville":"Uroz/Urotz"},{"id":"osm_node_3716140090","nom":"Ermita de Santa Agueda (Restos)","latitude":42.87753,"longitude":-1.16458,"ville":"Jaurrieta"},{"id":"osm_node_3726298369","nom":"Arzobispado de Pamplona","latitude":42.81826,"longitude":-1.63926,"ville":"Pamplona","codePostal":"31001","adresse":"Andre Maria Erreginaren plaza","telephone":"+34 948 227 400","siteWeb":"https://www.iglesianavarra.org/"},{"id":"osm_node_3726792139","nom":"Cruz de Motebizcar","latitude":42.89265,"longitude":-1.77952,"ville":"Sarasate"},{"id":"osm_node_3726813419","nom":"Capilla de Uranga","latitude":42.82235,"longitude":-1.61902,"ville":"Burlada/Burlata"},{"id":"osm_node_3726842924","nom":"San Silvestre (Ruinas)","latitude":42.84955,"longitude":-1.45804,"ville":"Iloz"},{"id":"osm_node_3726868568","nom":"Ermita de la Santa Cruz","latitude":42.93849,"longitude":-1.56371,"ville":"Etsain"},{"id":"osm_node_3726877666","nom":"Ermita de Belén","latitude":42.85911,"longitude":-0.92013,"ville":"Isaba"},{"id":"osm_node_3727963505","nom":"Ermita de San Blasco","latitude":42.90017,"longitude":-1.5493,"ville":"Larrasoaña"},{"id":"osm_node_3727964834","nom":"Tirapegiko ermita","latitude":42.90674,"longitude":-1.5477,"ville":"Larrasoaña"},{"id":"osm_node_3728134964","nom":"Ermita de San Lorenzo","latitude":42.82789,"longitude":-1.52394,"ville":"Echalaz"},{"id":"osm_node_3728193767","nom":"Pilar de San Marcos","latitude":42.92168,"longitude":-1.26881,"ville":"Garaioa"},{"id":"osm_node_3728207927","nom":"San Frantziskoren Santutegia","latitude":42.94524,"longitude":-1.1997,"ville":"Hiriberri de Aezkoa"},{"id":"osm_node_3740284747","nom":"Seminario de Pamplona","latitude":42.81362,"longitude":-1.62926,"adresse":"Avenida Baja Navarra"},{"id":"osm_node_3938018062","nom":"Capilla de Santiago Apóstol","latitude":42.79536,"longitude":-0.52552},{"id":"osm_node_4079693180","nom":"Ancienne Chapelle des Jésuites","latitude":45.83021,"longitude":1.2619},{"id":"osm_node_4230073201","nom":"Église","latitude":42.88273,"longitude":-1.69399,"ville":"ollacarizqueta","codePostal":"31193","adresse":"Calle La Purísima Kalea"},{"id":"osm_node_4329965192","nom":"San Lorenzo eliza","latitude":42.96885,"longitude":-1.54711},{"id":"osm_node_4370365133","nom":"Ancienne abbaye de Bonnefont (également sur commune de Sepx)","latitude":43.14146,"longitude":0.87386,"ville":"Proupiary","codePostal":"31360"},{"id":"osm_node_4460825920","nom":"Oratoire Saint-Jean-Baptiste","latitude":43.22579,"longitude":-0.89342},{"id":"osm_node_4517884290","nom":"Témoins de Jéhovah","latitude":45.70181,"longitude":-1.05624,"codePostal":"17920","adresse":"Rue du Caillau","telephone":"+33516658617","siteWeb":"https://www.jw.org/"},{"id":"osm_node_4532885913","nom":"Salle du Royaume des Témoins de Jéhovah","latitude":44.13635,"longitude":0.34263,"ville":"Nérac","codePostal":"47600","adresse":"Rue Ferréol"},{"id":"osm_node_4554193508","nom":"Salle du Royaume des Témoins de Jéhovah","latitude":45.83756,"longitude":1.24959,"codePostal":"87100","adresse":"Rue Ferdinand Lassalle","siteWeb":"https://www.jw.org/"},{"id":"osm_node_4562353044","nom":"Ancienne abbaye","latitude":44.69329,"longitude":0.05884,"telephone":"+33556613056"},{"id":"osm_node_4780331732","nom":"Chemin de Croix de Raynaude","latitude":43.05854,"longitude":1.33269},{"id":"osm_node_4813530505","nom":"Église","latitude":43.09562,"longitude":-0.05959},{"id":"osm_node_4816667285","nom":"Église","latitude":43.09671,"longitude":-0.05694},{"id":"osm_node_4943302734","nom":"Temple","latitude":43.10441,"longitude":1.37229},{"id":"osm_node_5128654923","nom":"Vierge du puy","latitude":43.14468,"longitude":0.93075},{"id":"osm_node_5243528037","nom":"Chapelle Saint-Georges","latitude":45.42924,"longitude":0.2704,"telephone":"+33545602431"},{"id":"osm_node_5433788326","nom":"iglesia NS Carmen AM eliza","latitude":42.8227,"longitude":-1.65131,"ville":"Pamplona/Iruña","codePostal":"31014","adresse":"Calle Jaurrieta","telephone":"+34 948 14 81 89"},{"id":"osm_node_5436126822","nom":"Iglesia De Jesucristo de los Santos de los Últimos Dias","latitude":42.81073,"longitude":-1.66743,"adresse":"Calle Ermitagaña","telephone":"+34 667547937"},{"id":"osm_node_5556676140","nom":"Ancienne abbaye Saint-Nicolas","latitude":44.75369,"longitude":-0.07454},{"id":"osm_node_5623138423","nom":"Salle du Royaume des Témoins de Jéhovah","latitude":44.18842,"longitude":0.61397,"codePostal":"47000","adresse":"Allée des Cressonnières","siteWeb":"https://www.jw.org"},{"id":"osm_node_6020046560","nom":"Chapelle","latitude":46.31874,"longitude":-0.46472},{"id":"osm_node_6070347665","nom":"Église","latitude":43.44442,"longitude":-1.54444},{"id":"osm_node_6117087728","nom":"Chapelle Sainte-Famille","latitude":46.16033,"longitude":-1.1516},{"id":"osm_node_6170629637","nom":"Église","latitude":43.09247,"longitude":-0.06047},{"id":"osm_node_6312792769","nom":"Église","latitude":44.02289,"longitude":1.35224},{"id":"osm_node_6447461335","nom":"Chapelle Sainte-Catherine","latitude":44.46102,"longitude":-0.69506},{"id":"osm_node_6454468376","nom":"Santa Luzia ermita","latitude":42.98361,"longitude":-1.6611},{"id":"osm_node_6779366675","nom":"Presbytère Saint-Martin","latitude":43.29445,"longitude":-0.37307},{"id":"osm_node_6935069452","nom":"Chapelle Notre-Dame","latitude":44.72124,"longitude":1.33385,"ville":"Gourdon","codePostal":"46300","adresse":"La Fontade"},{"id":"osm_node_7151072755","nom":"Chapelle Saint-Aptone","latitude":45.64506,"longitude":0.17804,"ville":"Angoulême","codePostal":"16000","adresse":"Boulevard Chanzy","telephone":"+33254374004;+33545928155"},{"id":"osm_node_7276488387","nom":"Chapelle des Eyquems de Veyrines","latitude":44.82433,"longitude":-0.64705},{"id":"osm_node_7531783596","nom":"San Juan Bautista eliza","latitude":43.13746,"longitude":-1.61555,"ville":"Oieregi","codePostal":"31720","adresse":"San Juan Bautista kalea"},{"id":"osm_node_7566201382","nom":"Chapelle du Carmel du Cœur Immaculé de Marie d'Eynesse","latitude":44.82629,"longitude":0.12376,"codePostal":"33220","adresse":"Chemin du Barrail","telephone":"+335 57 41 07 67"},{"id":"osm_node_7573523296","nom":"San Martin eliza","latitude":43.10537,"longitude":-1.5901,"ville":"Berroeta","codePostal":"31796","adresse":"Elizabidea karrika"},{"id":"osm_node_7580491704","nom":"Santa Maria eliza","latitude":43.14044,"longitude":-1.60526,"ville":"Oronoz","codePostal":"31720","adresse":"Santa Maria kalea"},{"id":"osm_node_7737335459","nom":"Chappelle du Cours l'Immaculée Conception","latitude":43.32685,"longitude":-0.96613,"ville":"Domezain-Berraute","codePostal":"64120","adresse":"Chemin Etchegorria","telephone":"+33 5 59 38 25 32","siteWeb":"https://laportelatine.org/lieux/ecole-saint-michel-garricoits-chateau-oihenartia-etcharry/cours-limmaculee-conception-domezain"},{"id":"osm_node_7743270074","nom":"Chapelle du Cours Saint-Thomas-d'Aquin","latitude":46.29063,"longitude":0.3074,"siteWeb":"https://laportelatine.org/lieux/cours-saint-thomas-daquin-romagne"},{"id":"osm_node_7846378737","nom":"Chappelle du Cours Notre-Dame de l'Assomption","latitude":44.01337,"longitude":1.34645,"ville":"Montauban","codePostal":"82000","adresse":"Avenue Marceau Hamecher","telephone":"+33 5 63 91 27 61","siteWeb":"https://laportelatine.org/lieux/gragnague/montauban"},{"id":"osm_node_7916461159","nom":"Chapelle Notre-Dame des Naufragés","latitude":43.46746,"longitude":-1.45796,"ville":"Villefranque","codePostal":"64990","telephone":"+33 5 59 65 70 05","siteWeb":"https://laportelatine.org/lieux/ecole-saint-michel-garricoits-chateau-oihenartia-etcharry/chapelle-notre-dame-des-naufrages-villefranque"},{"id":"osm_node_8035217753","nom":"Chapelle des Capucins","latitude":43.49292,"longitude":-1.48755},{"id":"osm_node_8164637200","nom":"Église","latitude":43.64122,"longitude":0.9964},{"id":"osm_node_8294530560","nom":"Église et baptistère Saint-Jean","latitude":45.82926,"longitude":1.26651},{"id":"osm_node_8407817644","nom":"Ancien séminaire","latitude":43.37225,"longitude":-1.43338},{"id":"osm_node_8589482174","nom":"Temple de l'église protestante évangélique","latitude":44.39736,"longitude":0.70102},{"id":"osm_node_8835117925","nom":"Église de la Science Chrétienne","latitude":43.29961,"longitude":-0.37173},{"id":"osm_node_9200945367","nom":"Parroquia San Francisco de Asís","latitude":42.80659,"longitude":-1.65646,"codePostal":"31007","adresse":"Calle Fuente del Hierro","siteWeb":"https://parroquiafranciscodeasispamplona.es"},{"id":"osm_node_9441805138","nom":"Oratoire","latitude":44.76231,"longitude":1.36746},{"id":"osm_node_9486991011","nom":"Santa Barbara ermita","latitude":43.08988,"longitude":-1.61449},{"id":"osm_node_9499326961","nom":"Chapelle Saint-Maximilien-Kolbe","latitude":43.09814,"longitude":-0.05459},{"id":"osm_node_9502964106","nom":"Chapelle de Saint Pascal Baylon","latitude":43.0972,"longitude":-0.05699},{"id":"osm_node_9502964111","nom":"Grotte de Massabielle","latitude":43.09753,"longitude":-0.05851},{"id":"osm_node_9502964112","nom":"Chapelle de Sainte Bernadette","latitude":43.09723,"longitude":-0.05708},{"id":"osm_node_9502964115","nom":"Chapelle de la Notre-Dame de Guadalupe","latitude":43.09728,"longitude":-0.05714},{"id":"osm_node_9525550797","nom":"Chapelle Saint-Jean-Marie Vianney","latitude":43.09809,"longitude":-0.05519},{"id":"osm_node_9525654742","nom":"Chapelle Saint-Côme et Saint-Damien","latitude":43.09821,"longitude":-0.05421},{"id":"osm_node_9606285304","nom":"Couvent des Soeurs de l'Ange Gardien","latitude":43.98983,"longitude":1.33874},{"id":"osm_node_9756415588","nom":"Église de Jésus-Christ des saints des derniers jours","latitude":43.23488,"longitude":0.05474,"telephone":"+33688069923","siteWeb":"https://local.churchofjesuschrist.org/fr/tarbes/22-rue-corneille"},{"id":"osm_node_9843328617","nom":"Parroquia Nuestra Señora del Huerto","latitude":42.81311,"longitude":-1.65801,"codePostal":"31008","adresse":"Avenida de Barañáin","telephone":"+34 948 26 30 92","siteWeb":"https://www.parroquianuestrasenoradelhuerto.es"},{"id":"osm_node_10029150743","nom":"Église Notre-Dame de Cambes","latitude":44.45704,"longitude":0.45343},{"id":"osm_node_10073423855","nom":"Chapelle du Sacré-Cœur","latitude":45.41516,"longitude":0.91527},{"id":"osm_node_10087823546","nom":"Notre-Dame des Grottes","latitude":44.92763,"longitude":1.44011},{"id":"osm_node_10151475772","nom":"Chapelle Notre-Dame de Cap","latitude":44.26736,"longitude":0.24457},{"id":"osm_node_10170968105","nom":"Église","latitude":42.78855,"longitude":1.26715},{"id":"osm_node_10175658758","nom":"Église","latitude":44.28725,"longitude":1.05494},{"id":"osm_node_10262966320","nom":"Église Saint-Christophe","latitude":43.13399,"longitude":0.97338},{"id":"osm_node_10564343602","nom":"Parroquia San Enrique","latitude":42.80499,"longitude":-1.63455},{"id":"osm_node_10607758827","nom":"Chapelle de l'hôpital Layné","latitude":43.89428,"longitude":-0.48499,"siteWeb":"https://diocese40.fr/eglise/chapelle-de-lhopital-layne-a-mont-de-marsan/"},{"id":"osm_node_10665602463","nom":"Cathédrale (ou théâtre) de verdure","latitude":43.08925,"longitude":-0.06365},{"id":"osm_node_10665602469","nom":"Église","latitude":43.08974,"longitude":-0.06341},{"id":"osm_node_10718407449","nom":"Chapelle","latitude":45.25932,"longitude":1.14524},{"id":"osm_node_10738282600","nom":"Virgen del Carmen","latitude":42.93165,"longitude":-1.24454},{"id":"osm_node_10753050540","nom":"Église","latitude":46.17709,"longitude":-1.36641,"ville":"Ile de Ré","codePostal":"17580","adresse":"Chemin du Grand-Bois-Jamain","telephone":"+33 2 51 42 95 88;+33 6 80 64 73 82","siteWeb":"https://laportelatine.org/lieux/les-fournils/ile-de-re"},{"id":"osm_node_10815375767","nom":"Église missionnaire gloire à Dieu","latitude":43.3023,"longitude":-0.37407},{"id":"osm_node_10912525261","nom":"Chapelle de l'Immaculée Conception","latitude":43.30626,"longitude":-0.37831},{"id":"osm_node_11112266498","nom":"Église","latitude":43.23236,"longitude":-0.86878},{"id":"osm_node_11225325110","nom":"Protestante évangélique","latitude":44.81231,"longitude":-0.5588},{"id":"osm_node_11228227212","nom":"Santa Ana ermita","latitude":43.18202,"longitude":-1.47776},{"id":"osm_node_11228531662","nom":"Église","latitude":43.10364,"longitude":0.78397},{"id":"osm_node_11263198120","nom":"Salón del Reino de los Testigos Cristianos de Jehová","latitude":42.80378,"longitude":-1.64317,"codePostal":"31005","adresse":"Calle Río Urederra","telephone":"+34 948 243 823","siteWeb":"https://apps.jw.org/ui/S/meeting-search.html#/?w=D52AF6D3-2B5C-4EA9-90EB-348CA01DF3B0"},{"id":"osm_node_11263234374","nom":"Salón del Reino de los Testigos Cristianos de Jehová","latitude":42.82549,"longitude":-1.64667,"codePostal":"31014","adresse":"Calle Uscarres","telephone":"+34 948 363 236","siteWeb":"https://apps.jw.org/ui/S/meeting-search.html#/?w=4B5A6DAA-5084-4051-BEDC-E813FC23F621"},{"id":"osm_node_11263234375","nom":"Salón del Reino de los Testigos Cristianos de Jehová","latitude":42.82822,"longitude":-1.61635,"codePostal":"31600","adresse":"Calle Villa de Lanz","telephone":"+34 948 136 008","siteWeb":"https://apps.jw.org/ui/S/meeting-search.html#/?w=B573DE48-8B54-493D-A9CF-01CE78D8C15C"},{"id":"osm_node_11263873739","nom":"Iglesia Evangélica Apostólica del Nombre de Jesús","latitude":42.80402,"longitude":-1.64364,"adresse":"Calle Río Urederra"},{"id":"osm_node_11397714459","nom":"Presbytère","latitude":44.8311,"longitude":-0.56282,"ville":"Bordeaux","codePostal":"33800","adresse":"Rue du Noviciat"},{"id":"osm_node_11402914411","nom":"Église","latitude":43.63028,"longitude":1.26496},{"id":"osm_node_11421816928","nom":"Chapelle Saint-Michel","latitude":43.29852,"longitude":-0.35591},{"id":"osm_node_11455325385","nom":"Iglesia de Santa Eulalia","latitude":42.8605,"longitude":-1.6885,"ville":"Berriosuso","codePostal":"31195","adresse":"Calle Santa Eulalia","telephone":"+34 948239087"},{"id":"osm_node_11530801243","nom":"Église évangéliste","latitude":46.16265,"longitude":-1.17669},{"id":"osm_node_11581983659","nom":"Église","latitude":45.44684,"longitude":-0.43607,"telephone":"+33952171386"},{"id":"osm_node_11626530923","nom":"Église","latitude":44.80186,"longitude":-0.64798},{"id":"osm_node_11650611169","nom":"Église","latitude":42.90105,"longitude":1.21084},{"id":"osm_node_11756538252","nom":"Ermitage Saint-Martial","latitude":45.47358,"longitude":-0.78493},{"id":"osm_node_11828838502","nom":"JW","latitude":44.86447,"longitude":-0.56116},{"id":"osm_node_11862904901","nom":"La Montjoie de la Caoue","latitude":43.1046,"longitude":0.71037},{"id":"osm_node_11877673934","nom":"Église","latitude":44.81046,"longitude":-0.1377,"ville":"Saint-Jean-de-Blaignac","codePostal":"33420","adresse":"Rue de la Sablière"},{"id":"osm_node_11913658896","nom":"Église","latitude":45.88638,"longitude":0.89886,"ville":"Saint-Junien","codePostal":"87200","adresse":"Boulevard de la République"},{"id":"osm_node_12071847138","nom":"Salle du Royaume des Témoins de Jéovah","latitude":45.65375,"longitude":0.20454},{"id":"osm_node_12154384594","nom":"Iglesia de San Blas de Burlada","latitude":42.82811,"longitude":-1.61504},{"id":"osm_node_12180567342","nom":"Évangélique reformé","latitude":44.85371,"longitude":-0.53834},{"id":"osm_node_12273165268","nom":"Chapelle des Petites Soeurs des Pauvres","latitude":43.30522,"longitude":-0.38085},{"id":"osm_node_12309855889","nom":"Lurdetxo","latitude":43.13758,"longitude":-1.53503},{"id":"osm_node_12323208900","nom":"Chapelle Saint Gabriel","latitude":43.09736,"longitude":-0.0581},{"id":"osm_node_12323226701","nom":"Chapelle Sainte Anne","latitude":43.09751,"longitude":-0.05804},{"id":"osm_node_12323226702","nom":"Chapelle Jeanne d'Arc","latitude":43.09737,"longitude":-0.05802},{"id":"osm_node_12463935599","nom":"Iglesia de Santo Domingo","latitude":42.81896,"longitude":-1.64502,"ville":"Pamplona / Iruña","codePostal":"31001","adresse":"Calle del Mercado","telephone":"+34 948 22 63 03"},{"id":"osm_node_12468528601","nom":"Convento de las Siervas de María","latitude":42.82027,"longitude":-1.6411,"codePostal":"31001"},{"id":"osm_node_12542206525","nom":"Crotz desparassada","latitude":44.56265,"longitude":1.40021},{"id":"osm_node_12652099897","nom":"Église","latitude":42.79868,"longitude":0.56571},{"id":"osm_node_12696702060","nom":"Église","latitude":43.58979,"longitude":1.15427},{"id":"osm_node_12703460445","nom":"Église Saint-Roch","latitude":43.03044,"longitude":0.28351},{"id":"osm_node_12802159939","nom":"Chapelle","latitude":45.71757,"longitude":-0.87764},{"id":"osm_node_12825704665","nom":"Église Évengélique \"Vie et Lumière\"","latitude":45.12966,"longitude":1.28989,"adresse":"Allée des Coquelicots","siteWeb":"https://vieetlumiere.net"},{"id":"osm_node_12856041190","nom":"Chapelle Saint-Benoît","latitude":44.50043,"longitude":0.16024},{"id":"osm_node_12999308089","nom":"Chapelle N.D. d'Escayrac","latitude":44.33291,"longitude":1.2794},{"id":"osm_node_13021000494","nom":"Chapelle Saint Germain","latitude":44.27975,"longitude":0.75479},{"id":"osm_node_13057788895","nom":"Parroquia Santa Vicenta María","latitude":42.80982,"longitude":-1.65662},{"id":"osm_node_13438719502","nom":"Salle du Royaume des Témoins de Jéhovah","latitude":43.10984,"longitude":-0.03427,"codePostal":"65100","adresse":"Rue Jean Bourdette","siteWeb":"https://www.jw.org/"},{"id":"osm_node_13438727501","nom":"Salle du Royaume des Témoins de Jéhovah","latitude":43.17237,"longitude":-0.23482,"codePostal":"64800","adresse":"Rue Tournier","siteWeb":"https://www.jw.org/"},{"id":"osm_node_13633475031","nom":"Chapelle du centre La Paillère","latitude":44.79682,"longitude":-0.60864},{"id":"osm_node_13658340142","nom":"église saint-pierre et saint-paul","latitude":43.57134,"longitude":-0.93021,"ville":"Habas","codePostal":"40290","adresse":"Place de l'Église"},{"id":"osm_way_23315210","nom":"Église Notre-Dame de la Dalbade","latitude":43.59767,"longitude":1.44258},{"id":"osm_way_25867325","nom":"Église Sainte-Geneviève","latitude":44.81865,"longitude":-0.57569,"adresse":"Impasse Elvina Sivan"},{"id":"osm_way_25984669","nom":"Église Saint-Jean","latitude":44.76355,"longitude":-0.65313,"telephone":"+33556788244"},{"id":"osm_way_26223433","nom":"Église Sainte-Quitterie","latitude":44.71373,"longitude":-0.54234},{"id":"osm_way_26238281","nom":"Église Saint-Jean-d'Estampe","latitude":44.68165,"longitude":-0.52716},{"id":"osm_way_27231419","nom":"Église","latitude":42.78972,"longitude":-1.53552,"ville":"Aranguren","codePostal":"31192","adresse":"Calle San Vicente - San Bizente Karrika"},{"id":"osm_way_28132042","nom":"Église Saint-Nicolas","latitude":43.59918,"longitude":1.43422},{"id":"osm_way_29113665","nom":"Iglesia de San Miguel","latitude":42.78544,"longitude":-1.72324,"ville":"Cizur","codePostal":"31190","adresse":"Calle de San Miguel"},{"id":"osm_way_30667912","nom":"Chapelle Sainte-Bazeille","latitude":44.53213,"longitude":0.09097},{"id":"osm_way_30922846","nom":"Église Saint-Pierre","latitude":45.32857,"longitude":-0.49078},{"id":"osm_way_30927850","nom":"Église Saint-Pierre","latitude":45.31252,"longitude":-0.46735},{"id":"osm_way_30996814","nom":"Église Saint-Pierre","latitude":45.62539,"longitude":0.05098},{"id":"osm_way_31050987","nom":"Église Saint-Jacques de l'Houmeau","latitude":45.65589,"longitude":0.16067},{"id":"osm_way_31192481","nom":"Église Saint-Pierre","latitude":45.28498,"longitude":-0.40867},{"id":"osm_way_31857912","nom":"Église Notre-Dame de l'Assomption","latitude":45.3731,"longitude":-0.56995},{"id":"osm_way_31859920","nom":"Église Saint-Vivien","latitude":45.33571,"longitude":-0.45023},{"id":"osm_way_31862852","nom":"Église Saint-Pierre","latitude":45.34462,"longitude":-0.48201},{"id":"osm_way_32611452","nom":"Église Saint-Jean Baptiste","latitude":45.85194,"longitude":0.76516},{"id":"osm_way_33168219","nom":"San Francisco Javier","latitude":42.81321,"longitude":-1.63607},{"id":"osm_way_33168220","nom":"Iglesia de San Miguel","latitude":42.81178,"longitude":-1.64009,"ville":"Pamplona/Iruña","codePostal":"31003","adresse":"Calle Francisco Bergamín","telephone":"+34 948 24 35 18","siteWeb":"https://www.parroquiasanmiguel.com/"},{"id":"osm_way_33908205","nom":"Église Saint-Pierre","latitude":43.27612,"longitude":1.17632},{"id":"osm_way_35152435","nom":"Église Notre-Dame","latitude":43.74835,"longitude":1.06266},{"id":"osm_way_35316357","nom":"Cathédrale Saint-Étienne","latitude":43.59989,"longitude":1.45044,"codePostal":"31000","adresse":"Impasse de la Préfecture"},{"id":"osm_way_35549927","nom":"Église Sainte-Foy","latitude":43.75263,"longitude":1.43177},{"id":"osm_way_36706997","nom":"Chapelle Saint-Jean-Baptiste","latitude":43.6017,"longitude":1.44595,"siteWeb":"http://www.icrsp-toulouse.fr"},{"id":"osm_way_36707791","nom":"Église Saint-Jérôme","latitude":43.60326,"longitude":1.44622},{"id":"osm_way_37053985","nom":"Église Saint-Jean-Baptiste","latitude":44.07663,"longitude":-1.16774},{"id":"osm_way_37896883","nom":"Iglesia de Nuestra Señora de la Asunción","latitude":42.77254,"longitude":-0.33133,"codePostal":"22640","adresse":"Calle de la Iglesia"},{"id":"osm_way_38129169","nom":"Basilique Notre-Dame de la Daurade","latitude":43.60094,"longitude":1.43985},{"id":"osm_way_38130010","nom":"Église Saint-Pierre","latitude":44.84733,"longitude":-0.46304},{"id":"osm_way_38141124","nom":"Église Saint-Jean-Baptiste","latitude":43.12718,"longitude":0.38497},{"id":"osm_way_38180467","nom":"Église Saint-Barthélemy","latitude":43.03708,"longitude":0.417},{"id":"osm_way_38234789","nom":"Parroquia de San Cosme y San Damián","latitude":42.78865,"longitude":-1.64514,"ville":"Cordovilla / Kordoba","codePostal":"31191","adresse":"San Kosme eta San Damian plaza"},{"id":"osm_way_38694256","nom":"Église Notre-Dame-de-l'Immaculée-Conception","latitude":45.19197,"longitude":0.68938},{"id":"osm_way_38813879","nom":"Église Saint-Gervais","latitude":44.64537,"longitude":-0.98231},{"id":"osm_way_39054640","nom":"Église Saint-Martin","latitude":43.20955,"longitude":-0.22496},{"id":"osm_way_39358306","nom":"Église de la Nativité-de-la-Très-Sainte-Vierge","latitude":46.08001,"longitude":1.42656},{"id":"osm_way_39372994","nom":"Église Saint-Ausone","latitude":45.65036,"longitude":0.1458},{"id":"osm_way_39480397","nom":"Chapelle de la Madeleine","latitude":43.14743,"longitude":-0.84412},{"id":"osm_way_39633505","nom":"Badostaingo Bideko Ama Birjinaren ermita","latitude":42.80126,"longitude":-1.59165},{"id":"osm_way_39854685","nom":"Église Saint-Denis","latitude":45.98662,"longitude":-0.52006},{"id":"osm_way_40463716","nom":"Église Saint-André","latitude":46.32765,"longitude":-0.46205},{"id":"osm_way_40533078","nom":"Église Saint-Hilaire","latitude":46.32112,"longitude":-0.45694},{"id":"osm_way_40717385","nom":"Église Saint-Christophe","latitude":45.37228,"longitude":-0.43842},{"id":"osm_way_40717880","nom":"Église Saint-Pierre-Claver","latitude":45.31461,"longitude":-0.53835},{"id":"osm_way_40732226","nom":"Église Saint-Martial","latitude":45.38189,"longitude":-0.59381},{"id":"osm_way_40734746","nom":"Église Saint-Martin du Petit-Niort","latitude":45.36219,"longitude":-0.56854,"telephone":"+33546702811"},{"id":"osm_way_41275024","nom":"Église Saint-Martin","latitude":44.7616,"longitude":0.25007},{"id":"osm_way_41383894","nom":"Église Sainte-Marie-Madeleine","latitude":46.32501,"longitude":-0.51259},{"id":"osm_way_41453792","nom":"Église Sainte-Madeleine","latitude":44.67625,"longitude":0.18203},{"id":"osm_way_41676668","nom":"Abbatiale Saint-Pierre et Saint-Paul","latitude":45.75465,"longitude":1.27566},{"id":"osm_way_42224323","nom":"Église Saint-Hilaire","latitude":44.33811,"longitude":1.20756},{"id":"osm_way_43054642","nom":"Église Saint-Michel","latitude":45.39283,"longitude":-0.39336},{"id":"osm_way_43066505","nom":"San José Obrero parrokia","latitude":43.33441,"longitude":-1.78749,"ville":"Irun","codePostal":"20304","adresse":"Victoriano Juaristi"},{"id":"osm_way_43803227","nom":"Église Sainte-Marie-Madeleine","latitude":45.87601,"longitude":1.23958},{"id":"osm_way_43949824","nom":"Église Sainte-Madeleine","latitude":43.02828,"longitude":1.02296},{"id":"osm_way_43979202","nom":"Église Saint-Vincent","latitude":44.63258,"longitude":-1.14938},{"id":"osm_way_44005598","nom":"Chapelle Saint-Maur","latitude":43.03219,"longitude":1.00172},{"id":"osm_way_44050229","nom":"Église Saint-Martial","latitude":45.64874,"longitude":0.1601},{"id":"osm_way_44140704","nom":"Chapelle du Calvaire","latitude":43.02546,"longitude":1.02606},{"id":"osm_way_44178330","nom":"Église du Sacré-Cœur","latitude":45.64788,"longitude":0.17253},{"id":"osm_way_44773604","nom":"Cathédrale Saint-Pierre","latitude":45.64902,"longitude":0.15158},{"id":"osm_way_44819200","nom":"Chapelle Notre-Dame de Bézines","latitude":45.64676,"longitude":0.15966,"adresse":"Rue de Montmoreau"},{"id":"osm_way_44847257","nom":"Chapelle","latitude":45.6508,"longitude":0.14876},{"id":"osm_way_44847560","nom":"Chapelle des Cordeliers","latitude":45.65049,"longitude":0.15045,"ville":"Angoulême","codePostal":"16000","adresse":"Rue de Beaulieu"},{"id":"osm_way_45116102","nom":"Église Sainte-Thérèse","latitude":43.9005,"longitude":-0.50779},{"id":"osm_way_45170228","nom":"Église Saint-Martial","latitude":45.47223,"longitude":-0.15347},{"id":"osm_way_45173906","nom":"Église Saint-Pierre-Saint-Paul","latitude":43.65971,"longitude":0.96256},{"id":"osm_way_45241755","nom":"Chapelle de l'hôpital Sainte-Anne","latitude":43.90115,"longitude":-0.49609},{"id":"osm_way_45254570","nom":"Église de la Madeleine","latitude":43.89272,"longitude":-0.50065},{"id":"osm_way_45830213","nom":"Église Saint-Vincent de Paul","latitude":43.90148,"longitude":-0.48338},{"id":"osm_way_46874558","nom":"Église Saint-Pierre","latitude":43.75601,"longitude":-1.32708},{"id":"osm_way_47307681","nom":"Église Saint-Vivien","latitude":45.74356,"longitude":-0.35317},{"id":"osm_way_47313738","nom":"Église Notre-Dame","latitude":44.45657,"longitude":0.29559},{"id":"osm_way_47370500","nom":"Église Saint-Vivien","latitude":44.61536,"longitude":0.10721},{"id":"osm_way_47423345","nom":"Église Saint-Pierre","latitude":44.64391,"longitude":0.20294},{"id":"osm_way_47478503","nom":"Église Saint-Vincent","latitude":44.63011,"longitude":-0.03798},{"id":"osm_way_48680655","nom":"Église Saint-Valier","latitude":42.98303,"longitude":1.14795},{"id":"osm_way_48682902","nom":"Église Saint-Girons","latitude":42.98442,"longitude":1.14445},{"id":"osm_way_48701082","nom":"Église Notre-Dame","latitude":43.86734,"longitude":-0.40481},{"id":"osm_way_49159876","nom":"Église Notre-Dame","latitude":43.78006,"longitude":1.40521},{"id":"osm_way_49493303","nom":"Église Saint-Médard","latitude":44.89575,"longitude":-0.71813},{"id":"osm_way_49508881","nom":"Église Saint-Martin","latitude":43.82797,"longitude":1.29497},{"id":"osm_way_49689209","nom":"Église Saint-Saturnin","latitude":45.83074,"longitude":-0.67164,"telephone":"+33546956161"},{"id":"osm_way_49689272","nom":"Église","latitude":45.84251,"longitude":-0.68702},{"id":"osm_way_49796187","nom":"Église Notre-Dame","latitude":44.10736,"longitude":0.89133,"ville":"Valence","codePostal":"82400"},{"id":"osm_way_50748812","nom":"Église Saint-Jean-Baptiste","latitude":43.83567,"longitude":-0.49964},{"id":"osm_way_50768516","nom":"Collégiale Saint-Laurent","latitude":43.23297,"longitude":0.0022},{"id":"osm_way_50768976","nom":"Chapelle Saint-Roch","latitude":43.23258,"longitude":0.00394},{"id":"osm_way_50801149","nom":"Église Saint-Martin","latitude":45.68006,"longitude":0.27166},{"id":"osm_way_51269803","nom":"Église de la Nativité de Salles","latitude":44.15605,"longitude":0.91219},{"id":"osm_way_52243848","nom":"Église Saint-Vincent","latitude":45.26868,"longitude":-0.52404,"telephone":"+33557326036"},{"id":"osm_way_52437342","nom":"Église Saint-Paul-des-Nations","latitude":43.57057,"longitude":1.40345},{"id":"osm_way_52823254","nom":"Église Saint-Martin","latitude":43.21412,"longitude":-0.62073},{"id":"osm_way_53045081","nom":"Chapelle Notre-Dame du Carmel","latitude":43.09324,"longitude":-0.05904},{"id":"osm_way_53151694","nom":"Chapelle De L'Hospitalet","latitude":43.09945,"longitude":-0.05437},{"id":"osm_way_53575955","nom":"Église Notre-Dame-de-l'Assomption","latitude":45.52845,"longitude":0.66554},{"id":"osm_way_54046355","nom":"Chapelle du Faget","latitude":43.23535,"longitude":-0.57244},{"id":"osm_way_54171005","nom":"Église Saint-Jean-Baptiste","latitude":43.1999,"longitude":-0.59238},{"id":"osm_way_54411658","nom":"Église Saint-Pardoux","latitude":45.49472,"longitude":0.74581},{"id":"osm_way_54676092","nom":"Église Saint-Hilaire","latitude":45.36341,"longitude":-0.97577},{"id":"osm_way_54698889","nom":"Chapelle","latitude":45.39681,"longitude":-0.44796},{"id":"osm_way_54698920","nom":"Église Saint-Simon","latitude":45.39562,"longitude":-0.45485},{"id":"osm_way_54852619","nom":"Église Saint-Brice","latitude":43.59097,"longitude":1.14942},{"id":"osm_way_54904762","nom":"Basilique souterraine Saint-Pie X","latitude":43.09728,"longitude":-0.05341},{"id":"osm_way_54979727","nom":"Église Saint-Martin","latitude":43.19557,"longitude":-0.57976},{"id":"osm_way_55056062","nom":"Église Saint-Cybard","latitude":45.6708,"longitude":0.35146,"telephone":"+33545707182"},{"id":"osm_way_55079745","nom":"Église Saint-Vincent-Diacre","latitude":43.18547,"longitude":-0.55377},{"id":"osm_way_55740936","nom":"Église Saint-Pierre","latitude":45.86633,"longitude":-1.0701},{"id":"osm_way_55748611","nom":"Église Saint-Georges","latitude":43.68789,"longitude":-1.22907},{"id":"osm_way_55822694","nom":"Église Notre-Dame de l'Assomption","latitude":45.35959,"longitude":-0.4082},{"id":"osm_way_55943478","nom":"Église","latitude":45.67775,"longitude":0.34824},{"id":"osm_way_56229481","nom":"Iglesia de San Jorge","latitude":42.82186,"longitude":-1.6666},{"id":"osm_way_56252319","nom":"Église Saint-Front","latitude":45.47276,"longitude":0.72572},{"id":"osm_way_56893313","nom":"Église Saint-Michel","latitude":45.46413,"longitude":0.67874},{"id":"osm_way_56993670","nom":"Église Saint-Pierre-ès-Liens","latitude":45.542,"longitude":0.72207},{"id":"osm_way_58727447","nom":"Église Notre-Dame-du-Scapulaire","latitude":45.54918,"longitude":0.90528},{"id":"osm_way_58735042","nom":"Chapelle de Solférino","latitude":42.86835,"longitude":-0.00791},{"id":"osm_way_59116268","nom":"Église Saint-Christophe","latitude":44.14998,"longitude":1.06294},{"id":"osm_way_59116345","nom":"Église Sainte-Livrade","latitude":44.11746,"longitude":1.15842},{"id":"osm_way_59116989","nom":"Église de Saint-Avit","latitude":44.15589,"longitude":1.03181},{"id":"osm_way_59117183","nom":"Église Saint-Christophe","latitude":44.14774,"longitude":1.14077},{"id":"osm_way_59118991","nom":"Sanctuaire de Notre-Dame d’Espis","latitude":44.13913,"longitude":1.1077},{"id":"osm_way_59120180","nom":"Église Saint-Hubert","latitude":44.16548,"longitude":1.1477},{"id":"osm_way_59120463","nom":"Église de la Décollation-de-Saint-Jean-Baptiste","latitude":44.13583,"longitude":1.0925},{"id":"osm_way_59120515","nom":"Notre-Dame d’Espis","latitude":44.13771,"longitude":1.1107},{"id":"osm_way_59120652","nom":"Église Saint-Sulpice","latitude":44.10333,"longitude":1.1682},{"id":"osm_way_59120953","nom":"Église Saint-Jacques","latitude":44.10223,"longitude":1.08683},{"id":"osm_way_59121450","nom":"Église Saint-Julien","latitude":44.16069,"longitude":1.09557},{"id":"osm_way_59127979","nom":"Abbatiale Saint-Pierre","latitude":44.1054,"longitude":1.08484,"adresse":"Place Roger Delthil"},{"id":"osm_way_60535162","nom":"Église Notre-Dame-du-Taur","latitude":43.60564,"longitude":1.44305},{"id":"osm_way_60540359","nom":"Église Saint-Jacques","latitude":45.61626,"longitude":1.43294},{"id":"osm_way_60544436","nom":"Chapelle des Carmélites","latitude":43.60754,"longitude":1.44328,"telephone":"+33 5 34 44 92 05","siteWeb":"https://www.toulouse-tourisme.com/chapelle-des-carmelites/toulouse/pcumid031fs00094"},{"id":"osm_way_60734326","nom":"Chapelle Saint-Jean","latitude":43.64029,"longitude":0.88182},{"id":"osm_way_60741046","nom":"Église Sainte-Soline","latitude":46.24633,"longitude":0.03584,"telephone":"+33549270096"},{"id":"osm_way_60950096","nom":"Église de Saint-Germain","latitude":43.66543,"longitude":0.90012},{"id":"osm_way_60952980","nom":"Église de la Nativité-de-Notre-Dame","latitude":43.66112,"longitude":0.87493},{"id":"osm_way_61045139","nom":"Chapelle Saint-Pé","latitude":43.6814,"longitude":0.85611},{"id":"osm_way_61045207","nom":"Église de Saint-Martin du Hour","latitude":43.68566,"longitude":0.86784},{"id":"osm_way_61420561","nom":"Église Saint-Georges","latitude":45.71877,"longitude":-0.35992},{"id":"osm_way_61593503","nom":"Église","latitude":46.31953,"longitude":-0.46328},{"id":"osm_way_61646952","nom":"Église Saint-Jean-Baptiste","latitude":45.2339,"longitude":1.09999,"adresse":"Place de l'Église"},{"id":"osm_way_61691916","nom":"Église Saint-Agnan","latitude":45.26525,"longitude":1.12866},{"id":"osm_way_61717099","nom":"Église Saint-Roch","latitude":45.28965,"longitude":1.11581},{"id":"osm_way_61717509","nom":"Église Saint-Martin","latitude":45.21148,"longitude":1.11852},{"id":"osm_way_61719731","nom":"Église Saint-Ours","latitude":45.20403,"longitude":1.07525},{"id":"osm_way_61745091","nom":"Église de l'Assomption-de-la-Très-Sainte-Vierge","latitude":45.70441,"longitude":1.09422,"ville":"Flavignac","codePostal":"87230","adresse":"Rue Saint-Fortunat","siteWeb":"https://flavignac.fr/curiosites-et-monuments/"},{"id":"osm_way_61749695","nom":"Église du Sacré-Cœur-de-Jésus","latitude":45.76622,"longitude":1.16712},{"id":"osm_way_61781436","nom":"Église Notre-Dame de la Visitation","latitude":43.95706,"longitude":1.23112},{"id":"osm_way_61893027","nom":"Église Saint-Sulpice","latitude":45.23666,"longitude":1.06005},{"id":"osm_way_61922299","nom":"Église Saint-Jean-Baptiste","latitude":43.35277,"longitude":-0.47055},{"id":"osm_way_62012163","nom":"Église Saint-Laurent","latitude":43.84974,"longitude":0.66468},{"id":"osm_way_62031516","nom":"Église Saint-Sulpice","latitude":45.62488,"longitude":0.91711},{"id":"osm_way_62109738","nom":"Église Notre-Dame","latitude":43.66626,"longitude":1.42951},{"id":"osm_way_62390324","nom":"Église de la Nativité-de-la-Sainte-Vierge","latitude":42.99521,"longitude":0.9065},{"id":"osm_way_62432762","nom":"Église Saint-Gervais et Saint-Protais","latitude":46.18961,"longitude":0.687},{"id":"osm_way_62434579","nom":"Église Saint-Vincent","latitude":43.20464,"longitude":-0.25825},{"id":"osm_way_62442577","nom":"Église Saint-Jean-Baptiste","latitude":43.27326,"longitude":-0.24651},{"id":"osm_way_62453240","nom":"Église Saint-Julien-de-Lescar","latitude":43.28349,"longitude":-0.26881},{"id":"osm_way_62459126","nom":"Église de l'Assomption-de-la-Bienheureuse-Vierge-Marie","latitude":43.29705,"longitude":-0.26024},{"id":"osm_way_62460663","nom":"Église Saint-Michel","latitude":43.0009,"longitude":0.74607},{"id":"osm_way_62470270","nom":"Église Saint-Laurent","latitude":43.28827,"longitude":-0.29008},{"id":"osm_way_62499774","nom":"Église Saint-Pierre","latitude":43.29013,"longitude":-0.31323},{"id":"osm_way_62570708","nom":"Église Saint-Martin de Castetarbe","latitude":43.4905,"longitude":-0.80384},{"id":"osm_way_62571822","nom":"Église Saint-Barthélémy","latitude":43.48414,"longitude":-0.77597},{"id":"osm_way_62572608","nom":"Église Saint-Pierre","latitude":43.48952,"longitude":-0.77528},{"id":"osm_way_62595740","nom":"Église Saint-Germain d'Auxerre","latitude":43.32138,"longitude":-0.76022},{"id":"osm_way_62596467","nom":"Chapelle Bérénenx","latitude":43.31609,"longitude":-0.7499},{"id":"osm_way_62601328","nom":"Église Sainte-Madeleine","latitude":43.37881,"longitude":-0.60829},{"id":"osm_way_62653202","nom":"Église Saint-Pierre","latitude":45.70171,"longitude":-0.35672,"telephone":"+33545820571"},{"id":"osm_way_62708412","nom":"Chapelle de la Gleysette","latitude":43.49804,"longitude":1.43474},{"id":"osm_way_62710256","nom":"Église Notre-Dame","latitude":43.50294,"longitude":1.4119},{"id":"osm_way_62757303","nom":"Église Saint-Pierre","latitude":45.68018,"longitude":-0.17717,"telephone":"+33545810900"},{"id":"osm_way_62813381","nom":"Église de la Nativité-de-la-Sainte-Vierge","latitude":42.97088,"longitude":0.72457},{"id":"osm_way_62827490","nom":"Église","latitude":43.01554,"longitude":0.78003},{"id":"osm_way_62828155","nom":"Église Saint-Martin","latitude":43.01559,"longitude":0.80223},{"id":"osm_way_62872783","nom":"Église Sainte-Thérèse de l'Enfant Jésus","latitude":43.29831,"longitude":-0.3524,"ville":"Pau","codePostal":"64000","adresse":"Avenue Trespoey","telephone":"+33 5 59 30 28 43"},{"id":"osm_way_62875131","nom":"Paroisse Saint-Jacques","latitude":43.29771,"longitude":-0.37309},{"id":"osm_way_62875398","nom":"Église Saint-Jean-Baptiste","latitude":43.3191,"longitude":-0.34605,"telephone":"+33 5 59 02 63 14"},{"id":"osm_way_62876089","nom":"Église Notre-Dame","latitude":43.30248,"longitude":-0.35955,"siteWeb":"https://www.pau-pyrenees.com/fr/decouv_hist_pat_arch_religieuse_eglise_notre_dame_.php"},{"id":"osm_way_62877285","nom":"Église Saint-Martin","latitude":43.29419,"longitude":-0.37258,"telephone":"+33 5 59 11 60 70","siteWeb":"https://www.pau-pyrenees.com/fr/decouv_hist_pat_arch_religieuse_eglise_saint_marti.php"},{"id":"osm_way_62883687","nom":"Église Saint-Vincent de Paul","latitude":43.31068,"longitude":-0.35419,"telephone":"+33 5 59 02 67 02"},{"id":"osm_way_62885578","nom":"Église Saint-Louis-de-Gonzague","latitude":43.29596,"longitude":-0.36541,"telephone":"+33 5 59 11 60 70","siteWeb":"http://www.christsauveur64.org/"},{"id":"osm_way_62904399","nom":"Église Saint-Jacques","latitude":43.29786,"longitude":-0.37225,"siteWeb":"https://www.pau-pyrenees.com/fr/decouv_hist_pat_arch_religieuse_eglise_saint_jacqu.php"},{"id":"osm_way_62906329","nom":"Église Saint-Joseph","latitude":43.30627,"longitude":-0.37381,"telephone":"+33 5 59 32 44 06","siteWeb":"https://www.pau-pyrenees.com/fr/decouv_hist_pat_arch_religieuse_eglise_st_joseph_p.php"},{"id":"osm_way_62910415","nom":"Église Saint-Charles","latitude":43.31322,"longitude":-0.37468,"telephone":"+33 5 59 32 44 06","siteWeb":"http://www.christsauveur64.org/"},{"id":"osm_way_62915312","nom":"Église Sainte-Bernadette","latitude":43.30738,"longitude":-0.33504,"ville":"Pau","codePostal":"64000","adresse":"Boulevard du Corps Franc Pommiès et du 49e Régiment d'Infanterie","siteWeb":"https://www.saintefamille64.org/"},{"id":"osm_way_62916094","nom":"Église Saint-Pierre","latitude":43.30971,"longitude":-0.3644,"telephone":"+33 5 59 14 24 19","siteWeb":"https://www.pau-pyrenees.com/fr/decouv_hist_pat_arch_religieuse_eglise_st_pierre_p.php"},{"id":"osm_way_62927090","nom":"Église Saint-Paul","latitude":43.32202,"longitude":-0.36295,"telephone":"+33 5 59 02 68 07"},{"id":"osm_way_62932910","nom":"Maison Saint François-Xavier","latitude":43.30084,"longitude":-0.37322},{"id":"osm_way_62935404","nom":"Église Notre-Dame-du-Bout-du-Pont","latitude":43.29061,"longitude":-0.38026,"siteWeb":"https://www.pau-pyrenees.com/fr/decouv_hist_pat_arch_religieuse_chap_bout_pont.php"},{"id":"osm_way_63033366","nom":"Église Saint-Magne","latitude":43.28845,"longitude":-0.35232},{"id":"osm_way_63034555","nom":"Église Saint-Barthélemy et Saint-Pierre","latitude":43.27665,"longitude":-0.35211},{"id":"osm_way_63035088","nom":"Paroisse Saint-Ambroise en la Vallée Heureuse","latitude":43.2762,"longitude":-0.35154},{"id":"osm_way_63035820","nom":"Église Notre-Dame de la Nativité","latitude":43.6403,"longitude":0.99939},{"id":"osm_way_63041149","nom":"Église Saint-Michel","latitude":43.28344,"longitude":-0.36979},{"id":"osm_way_63125718","nom":"Chapelle de Rousse","latitude":43.26045,"longitude":-0.42205},{"id":"osm_way_63128782","nom":"Église Notre-Dame-de-l'Assomption","latitude":43.28935,"longitude":-0.38846},{"id":"osm_way_63131321","nom":"Église Saint-Maclou","latitude":45.64266,"longitude":-0.38181},{"id":"osm_way_63219315","nom":"Église Saint-Pierre","latitude":45.77743,"longitude":-0.35927,"telephone":"+33545832564"},{"id":"osm_way_63226467","nom":"Église Saint-Cybard","latitude":45.44909,"longitude":-0.20151,"telephone":"+33545780127"},{"id":"osm_way_63229119","nom":"Église-prieuré Saint-Saturnin","latitude":45.4353,"longitude":-0.22411,"telephone":"+33545780127"},{"id":"osm_way_63235144","nom":"Prieuré Sainte-Radegonde","latitude":45.38466,"longitude":-0.26115,"telephone":"+33545780127"},{"id":"osm_way_63236143","nom":"Église abbatiale Saint-Étienne","latitude":45.38021,"longitude":-0.23456,"telephone":"+33545780127"},{"id":"osm_way_63287242","nom":"Église Saint-Barthélémy","latitude":43.22894,"longitude":-0.38784},{"id":"osm_way_63295009","nom":"Église Saint-Pierre","latitude":43.17671,"longitude":-0.43158},{"id":"osm_way_63312068","nom":"Église Saint-Michel","latitude":43.3749,"longitude":-0.34288},{"id":"osm_way_63335373","nom":"Église Saint-Pierre-aux-Liens","latitude":43.21914,"longitude":0.88043},{"id":"osm_way_63345437","nom":"Église Saint-Julien","latitude":43.38735,"longitude":-0.35663,"ville":"Serres-Castet","codePostal":"64121","adresse":"Chemin de la Carrère"},{"id":"osm_way_63359569","nom":"Église Saint-Germain","latitude":45.6359,"longitude":-0.37071,"telephone":"+33545834007"},{"id":"osm_way_63366552","nom":"Église Sainte-Marie-Madeleine","latitude":43.40302,"longitude":-0.3867},{"id":"osm_way_63378850","nom":"Église Saint-Jean-Baptiste","latitude":43.43576,"longitude":-0.35918},{"id":"osm_way_63379295","nom":"Église de l'Assomption-de-la-Bienheureuse-Vierge-Marie","latitude":43.413,"longitude":-0.34254},{"id":"osm_way_63380472","nom":"Église Saint-Benoît","latitude":45.79728,"longitude":-0.26438,"telephone":"+33545832564"},{"id":"osm_way_63384242","nom":"Église Notre-Dame-du-Rosaire","latitude":43.68278,"longitude":1.31859},{"id":"osm_way_63388934","nom":"Église abbatiale Saint-Étienne","latitude":45.66195,"longitude":-0.1052},{"id":"osm_way_63403995","nom":"Église Saint-Romain","latitude":45.6972,"longitude":-0.20972,"telephone":"+33545810900"},{"id":"osm_way_63414159","nom":"Église Saint-Laurent","latitude":43.30006,"longitude":-0.39051},{"id":"osm_way_63490195","nom":"Église Saint-Julien","latitude":43.32299,"longitude":-0.3799},{"id":"osm_way_63492836","nom":"Église Saint-Jean Baptiste","latitude":43.31783,"longitude":-0.4132},{"id":"osm_way_63510995","nom":"Église Saint-Jean-Baptiste","latitude":43.22113,"longitude":-0.88941},{"id":"osm_way_63512384","nom":"Église Notre-Dame de la Haute-Ville","latitude":43.22072,"longitude":-0.88424},{"id":"osm_way_63512471","nom":"Ancien Monastère d'Aguerria","latitude":43.22586,"longitude":-0.89638},{"id":"osm_way_63512846","nom":"Chapelle Saint-Jean-de-Béraute","latitude":43.21592,"longitude":-0.89217},{"id":"osm_way_63527678","nom":"Église Sainte-Élisabeth","latitude":45.72043,"longitude":-0.08446,"telephone":"+33545810900"},{"id":"osm_way_63529335","nom":"Église Saint-Cybard et Saint-Laurent","latitude":45.71353,"longitude":-0.12433,"telephone":"+33545810900"},{"id":"osm_way_63536112","nom":"Cathédrale Notre-Dame-de-l'Assomption de Lescar","latitude":43.33297,"longitude":-0.43338,"ville":"Lescar","codePostal":"64230","adresse":"Place Royale"},{"id":"osm_way_63538476","nom":"Église Saint-Martin","latitude":45.75976,"longitude":-0.21131,"telephone":"+33545323908"},{"id":"osm_way_63538898","nom":"Église Saint-Julien","latitude":43.33101,"longitude":-0.43772},{"id":"osm_way_63545773","nom":"Église Saint-Georges","latitude":45.28343,"longitude":-0.34523},{"id":"osm_way_63565949","nom":"Église Saint-Augustin","latitude":43.76066,"longitude":0.82509},{"id":"osm_way_63593752","nom":"Église Saint-Germain","latitude":45.71609,"longitude":-0.24522,"telephone":"+33545810900"},{"id":"osm_way_63671388","nom":"Église Saint-Pierre","latitude":45.72982,"longitude":-0.23565,"telephone":"+33545810900"},{"id":"osm_way_63677641","nom":"Église Saint-Laurent","latitude":43.37285,"longitude":-0.59333},{"id":"osm_way_63680435","nom":"Église Saint-Jean-Baptiste","latitude":43.3666,"longitude":-0.58746},{"id":"osm_way_63681961","nom":"Église de la Décollation-de-Saint-Jean-Baptiste","latitude":43.37798,"longitude":-0.54027},{"id":"osm_way_63687376","nom":"Église Saint-Pierre","latitude":43.39591,"longitude":-0.57211},{"id":"osm_way_63691735","nom":"Église Saint-Jean-Baptiste","latitude":43.39343,"longitude":-0.5251},{"id":"osm_way_63694782","nom":"Église Sainte-Sévère","latitude":45.7527,"longitude":-0.23928,"telephone":"+33545323908"},{"id":"osm_way_63695511","nom":"Église Saint-Pierre","latitude":43.38811,"longitude":-0.61453},{"id":"osm_way_63695853","nom":"Église Saint-Saturnin","latitude":43.3987,"longitude":-0.62576},{"id":"osm_way_63699699","nom":"Église Saint-Vincent-Diacre","latitude":43.43218,"longitude":-0.60779},{"id":"osm_way_63699757","nom":"Église Saint-Martin","latitude":43.41259,"longitude":-0.62032},{"id":"osm_way_63757679","nom":"Église Saint-Pierre","latitude":43.43406,"longitude":-0.65482},{"id":"osm_way_63758119","nom":"Église Saint-Barthélemy","latitude":43.40894,"longitude":-0.64827},{"id":"osm_way_63758752","nom":"Église Saint-Martin","latitude":43.41841,"longitude":-0.66908},{"id":"osm_way_63761294","nom":"Église Saint-Pierre-aux-Liens","latitude":43.43982,"longitude":-0.67967},{"id":"osm_way_63769143","nom":"Église de l'Assomption","latitude":43.41483,"longitude":-0.55366},{"id":"osm_way_63772234","nom":"Église Saint-Barthélemy","latitude":43.44573,"longitude":-0.59142},{"id":"osm_way_63774724","nom":"Église Saint-André","latitude":43.42222,"longitude":-0.51652},{"id":"osm_way_63776353","nom":"Église du Martyre-de-Saint-Jean-Baptiste","latitude":43.41046,"longitude":-0.49954},{"id":"osm_way_63813923","nom":"Église Notre-Dame-de-l'Assomption","latitude":43.22146,"longitude":-0.4783},{"id":"osm_way_63821431","nom":"Église Notre-Dame de l'Assomption","latitude":42.79127,"longitude":0.59149},{"id":"osm_way_63850729","nom":"Église Notre-Dame","latitude":43.19309,"longitude":-0.60367},{"id":"osm_way_63850927","nom":"Cathédrale Sainte-Marie d'Oloron","latitude":43.18785,"longitude":-0.61598},{"id":"osm_way_63854829","nom":"Chapelle Sainte-Lucie","latitude":43.1681,"longitude":-0.59092},{"id":"osm_way_63858805","nom":"Église Sainte-Croix d'Oloron","latitude":43.1891,"longitude":-0.60609},{"id":"osm_way_63859198","nom":"Église Saint-Pierre","latitude":43.18141,"longitude":-0.64477},{"id":"osm_way_63941510","nom":"Église Saint-Maurice","latitude":45.61792,"longitude":-0.33257},{"id":"osm_way_63953761","nom":"Église Saint-Martin","latitude":45.73728,"longitude":-0.15832},{"id":"osm_way_63955567","nom":"Église Saint-Martin","latitude":45.42709,"longitude":1.13521},{"id":"osm_way_63956924","nom":"Église Saint-Romain","latitude":45.67741,"longitude":-0.11582,"telephone":"+33545810900"},{"id":"osm_way_63969185","nom":"Église Sainte-Marie-des-Anges","latitude":43.58362,"longitude":1.44383},{"id":"osm_way_63969399","nom":"Église Sainte-Germaine","latitude":43.58046,"longitude":1.44851,"telephone":"+33 5 82 75 37 08","siteWeb":"https://saintegermaine.fr/"},{"id":"osm_way_64024199","nom":"Église Saint-Jean-Baptiste","latitude":45.26047,"longitude":0.70419},{"id":"osm_way_64093340","nom":"Église du Sacré-Cœur","latitude":43.59743,"longitude":1.42325},{"id":"osm_way_64096235","nom":"Église Saint-Julien et Saint-Vincent","latitude":45.24578,"longitude":0.68557},{"id":"osm_way_64129953","nom":"Église Saint-Blaise","latitude":45.16317,"longitude":0.57185},{"id":"osm_way_64158647","nom":"Église Saint-Martin","latitude":46.12281,"longitude":0.65347},{"id":"osm_way_64169555","nom":"Église Saint-Julien","latitude":43.66931,"longitude":1.37958},{"id":"osm_way_64232658","nom":"Église Saint-Vincent","latitude":43.77403,"longitude":0.92859},{"id":"osm_way_64234982","nom":"Église Saint-Barthélemy","latitude":43.67133,"longitude":1.11398},{"id":"osm_way_64235103","nom":"Église","latitude":43.69365,"longitude":1.11594},{"id":"osm_way_64235508","nom":"Chapelle Sainte-Marie","latitude":43.69359,"longitude":1.11593},{"id":"osm_way_64264934","nom":"Église Sainte-Madeleine","latitude":43.79214,"longitude":1.10722},{"id":"osm_way_64274799","nom":"Église Saint-Pierre","latitude":45.30002,"longitude":-0.38753},{"id":"osm_way_64276983","nom":"Chapelle Saint-Babylas","latitude":45.29939,"longitude":-0.35835},{"id":"osm_way_64281219","nom":"Église Saint-Hilaire","latitude":45.31278,"longitude":-0.40454},{"id":"osm_way_64282389","nom":"Église Saint-Vincent","latitude":45.33934,"longitude":-0.41731},{"id":"osm_way_64283107","nom":"Église de l'Assomption","latitude":45.24973,"longitude":-0.39385},{"id":"osm_way_64284325","nom":"Église Notre-Dame-de-l'Assomption","latitude":45.21339,"longitude":-0.36881},{"id":"osm_way_64314869","nom":"Église Saint-Martin","latitude":45.38593,"longitude":-0.37999,"telephone":"+33952171386"},{"id":"osm_way_64317264","nom":"Église Saint-Vincent","latitude":45.22054,"longitude":-0.17942,"telephone":"+33546044441"},{"id":"osm_way_64322467","nom":"Église Saint-Vivien","latitude":45.18205,"longitude":-0.22696,"telephone":"+33546044441"},{"id":"osm_way_64325920","nom":"Église Saint-Jean-Baptiste","latitude":45.35169,"longitude":-0.51443,"telephone":"+33546702811"},{"id":"osm_way_64405100","nom":"Saint-Pierre","latitude":43.63417,"longitude":1.39934},{"id":"osm_way_64411535","nom":"Chapelle Saint-Gabriel","latitude":43.62309,"longitude":1.39213},{"id":"osm_way_64421793","nom":"Église Sainte-Catherine de Sienne","latitude":43.63013,"longitude":1.39946},{"id":"osm_way_64458268","nom":"Église Saint-Just","latitude":43.14736,"longitude":-0.50604},{"id":"osm_way_64460375","nom":"Église Saint-Jean-Baptiste","latitude":43.70434,"longitude":1.19895},{"id":"osm_way_64485398","nom":"Église Saint-Saturnin","latitude":45.12935,"longitude":-0.20614,"telephone":"+33546044441"},{"id":"osm_way_64490459","nom":"Église Saint-Léger","latitude":45.11844,"longitude":-0.14889},{"id":"osm_way_64492625","nom":"Église Notre-Dame","latitude":45.1228,"longitude":-0.04017},{"id":"osm_way_64496883","nom":"Église Saint-Jean-Baptiste","latitude":43.16875,"longitude":-0.54012},{"id":"osm_way_64498624","nom":"Église Sainte-Madeleine","latitude":45.32372,"longitude":-0.36921},{"id":"osm_way_64521540","nom":"Église Paroissiale Saint-Gervais et Saint-Protais","latitude":45.44488,"longitude":-0.43666},{"id":"osm_way_64533361","nom":"Église Saint-Médard","latitude":43.68368,"longitude":1.38441},{"id":"osm_way_64536486","nom":"Église Sainte-Menne","latitude":43.75677,"longitude":1.01641},{"id":"osm_way_64536736","nom":"Église Saint-Michel","latitude":43.78125,"longitude":0.98746},{"id":"osm_way_64548057","nom":"Église Saint-Martin et Saint-Eutrope","latitude":43.72766,"longitude":1.41046},{"id":"osm_way_64554586","nom":"Église Saint-Cybard","latitude":45.6574,"longitude":0.14778},{"id":"osm_way_64562204","nom":"Église de Lucvielle","latitude":43.69951,"longitude":0.78848,"adresse":"Chemin de Lucvielle"},{"id":"osm_way_64562311","nom":"Église Saint-Salvy","latitude":43.69442,"longitude":0.82,"adresse":"Route de Fleurance"},{"id":"osm_way_64568954","nom":"Église Saint-André","latitude":45.65011,"longitude":0.15483},{"id":"osm_way_64593565","nom":"Église de l'Assomption de la Vierge","latitude":43.16239,"longitude":-1.23698,"ville":"Saint-Jean-Pied-de-Port","adresse":"Rue de la Citadelle"},{"id":"osm_way_64650885","nom":"Église Saint-Hilaire","latitude":43.61409,"longitude":1.44354},{"id":"osm_way_64682042","nom":"Église Notre-Dame","latitude":43.79349,"longitude":1.0353},{"id":"osm_way_64682055","nom":"Église Saint-Jean-Baptiste","latitude":43.78672,"longitude":0.99796},{"id":"osm_way_64720095","nom":"Église Saint-Jean-Baptiste","latitude":43.15647,"longitude":-0.59671},{"id":"osm_way_64722196","nom":"Église Saint-Martin-de-Tours","latitude":43.17783,"longitude":-0.60479},{"id":"osm_way_64746584","nom":"Église Saint-Léger","latitude":46.19007,"longitude":0.18772},{"id":"osm_way_64790670","nom":"Église Sainte-Clotilde","latitude":44.86546,"longitude":-0.60074,"ville":"Le Bouscat","codePostal":"33110","adresse":"Place Gambetta"},{"id":"osm_way_64810407","nom":"Église Saint-Martin","latitude":45.38412,"longitude":-0.49196},{"id":"osm_way_64824784","nom":"Église Sainte-Marie-Madeleine","latitude":45.6854,"longitude":-0.35428},{"id":"osm_way_64828180","nom":"Église Sainte-Thérèse-de-l'Enfant-Jésus","latitude":45.30271,"longitude":-0.23148,"telephone":"+33546044441"},{"id":"osm_way_64831846","nom":"Église Saint-Pierre","latitude":45.52087,"longitude":-0.30346},{"id":"osm_way_64833914","nom":"Église","latitude":43.21473,"longitude":-0.65385},{"id":"osm_way_64834084","nom":"Église Saint-Jean-Baptiste","latitude":43.213,"longitude":-0.65461},{"id":"osm_way_64836285","nom":"Église Saint-Pierre","latitude":43.18255,"longitude":-0.53657},{"id":"osm_way_64843404","nom":"Église Saint-Nicolas","latitude":45.99296,"longitude":-0.08344,"telephone":"+33549270096"},{"id":"osm_way_64892009","nom":"Chapelle Sainte-Marie de Casselardit","latitude":43.60594,"longitude":1.40794},{"id":"osm_way_64903053","nom":"Notre Dame de l’Assomption","latitude":45.24415,"longitude":-0.25858,"telephone":"+33546044441"},{"id":"osm_way_64943407","nom":"Église Saint-Bonnet","latitude":45.35485,"longitude":-0.66065,"telephone":"+33546702811"},{"id":"osm_way_64964357","nom":"Église Saint-Étienne","latitude":45.25523,"longitude":-0.30936},{"id":"osm_way_64990250","nom":"Église Saint-Martin","latitude":46.01262,"longitude":-1.17285,"telephone":"+33546846425"},{"id":"osm_way_65016561","nom":"Église Saint-Martin","latitude":43.69067,"longitude":0.91411},{"id":"osm_way_65022816","nom":"Église Saint-Orens","latitude":43.71431,"longitude":0.90717},{"id":"osm_way_65022895","nom":"Église","latitude":43.71182,"longitude":0.91312},{"id":"osm_way_65068594","nom":"Église Saint-Jacques","latitude":45.69963,"longitude":-0.33416},{"id":"osm_way_65074884","nom":"Église Saint-Pierre","latitude":45.22984,"longitude":-0.23365,"telephone":"+33546044441"},{"id":"osm_way_65082393","nom":"Notre-Dame de Lorette","latitude":44.58821,"longitude":0.09884},{"id":"osm_way_65082485","nom":"Église Saint-Michel","latitude":44.58158,"longitude":0.0704},{"id":"osm_way_65089791","nom":"Chapelle Notre-Dame","latitude":44.32364,"longitude":0.35501},{"id":"osm_way_65092616","nom":"Église Saint-Félix","latitude":44.3022,"longitude":0.33765},{"id":"osm_way_65093094","nom":"Église Saint-Côme","latitude":44.28304,"longitude":0.33664},{"id":"osm_way_65098400","nom":"Chapelle Saint-Louis","latitude":44.29971,"longitude":0.33753},{"id":"osm_way_65108501","nom":"Église Saint-Martin","latitude":45.22694,"longitude":-0.21426,"telephone":"+33546044441"},{"id":"osm_way_65152699","nom":"Église Saint-Paul-l'Ermite","latitude":43.72223,"longitude":-1.05472,"siteWeb":"https://diocese40.fr/paroisse/saint-paul-saint-vincent-de-dax/e-Dax-"},{"id":"osm_way_65200553","nom":"Église Saint-Étienne","latitude":45.32843,"longitude":-0.32986},{"id":"osm_way_65200742","nom":"Église Saint-Saturnin","latitude":45.32307,"longitude":-0.35176},{"id":"osm_way_65200994","nom":"Église Notre-Dame-de-l'Assomption","latitude":45.30838,"longitude":-0.33049},{"id":"osm_way_65206586","nom":"Église Saint-Fort","latitude":45.15814,"longitude":-0.00836},{"id":"osm_way_65207610","nom":"Église Saint-Saturnin","latitude":43.69874,"longitude":0.08466},{"id":"osm_way_65207814","nom":"Église Saint-Jacques","latitude":43.672,"longitude":0.10539},{"id":"osm_way_65209525","nom":"Église Saint-André","latitude":43.6863,"longitude":0.0513},{"id":"osm_way_65211377","nom":"Église Saint-Lizier","latitude":43.69094,"longitude":0.77398},{"id":"osm_way_65212276","nom":"Église Saint-Martin","latitude":43.72706,"longitude":0.44903},{"id":"osm_way_65215971","nom":"Église de la Nativité-de-la-Sainte-Vierge","latitude":43.70766,"longitude":-0.17799,"adresse":"Route du Luc"},{"id":"osm_way_65221425","nom":"Église Saint-Pierre","latitude":43.75133,"longitude":-0.07093},{"id":"osm_way_65222224","nom":"Église Saint-Luperc","latitude":43.73417,"longitude":-0.067},{"id":"osm_way_65230366","nom":"Église Saint-Loup","latitude":43.71671,"longitude":1.00099},{"id":"osm_way_65235347","nom":"Église Notre-Dame-de-l'Assomption","latitude":43.72116,"longitude":0.97915},{"id":"osm_way_65239688","nom":"Église Saint-Cyr-et-Sainte-Julitte","latitude":43.69989,"longitude":1.03836},{"id":"osm_way_65239852","nom":"Église","latitude":43.68532,"longitude":1.02535},{"id":"osm_way_65240686","nom":"Église Saint-Sabin","latitude":43.66302,"longitude":1.0223},{"id":"osm_way_65243054","nom":"Église Sainte-Anne","latitude":43.66879,"longitude":0.98138},{"id":"osm_way_65243788","nom":"Église Sainte-Radegonde","latitude":43.69901,"longitude":0.99966},{"id":"osm_way_65262979","nom":"Église Saint-Cirq","latitude":43.71016,"longitude":0.94966},{"id":"osm_way_65265143","nom":"Église Sainte-Anne","latitude":43.74332,"longitude":0.96463},{"id":"osm_way_65269836","nom":"Église Saint-Georges","latitude":43.72824,"longitude":0.9358},{"id":"osm_way_65272777","nom":"Église Saint-Martin","latitude":43.68344,"longitude":0.99148},{"id":"osm_way_65279033","nom":"Église Saint-Germier","latitude":43.66682,"longitude":0.95008},{"id":"osm_way_65294981","nom":"La Capelette","latitude":44.18009,"longitude":0.62439},{"id":"osm_way_65300720","nom":"Chapelle du lycée Bernard Palissy","latitude":44.19939,"longitude":0.62431},{"id":"osm_way_65302315","nom":"Église Notre-Dame-de-Vie","latitude":44.21203,"longitude":0.61956},{"id":"osm_way_65302355","nom":"Église Sainte-Foy","latitude":44.20772,"longitude":0.62054},{"id":"osm_way_65305164","nom":"Église","latitude":44.21206,"longitude":0.62936},{"id":"osm_way_65309413","nom":"Église du Sacré-Coeur","latitude":44.20305,"longitude":0.62734},{"id":"osm_way_65309666","nom":"Cathédrale Saint-Caprais","latitude":44.20678,"longitude":0.6193},{"id":"osm_way_65314570","nom":"Église de Lamothe","latitude":43.74381,"longitude":0.84316,"adresse":"Chemin de l'Eglise"},{"id":"osm_way_65317473","nom":"Église Saint-Michel","latitude":43.73077,"longitude":0.87627,"codePostal":"32120"},{"id":"osm_way_65317617","nom":"Chapelle d'en Galin","latitude":43.75531,"longitude":0.86765},{"id":"osm_way_65318171","nom":"Église Notre-Dame-de-l'Assomption du Grazan","latitude":43.75615,"longitude":0.8508},{"id":"osm_way_65320294","nom":"Église","latitude":43.76333,"longitude":0.86265},{"id":"osm_way_65330652","nom":"Église Saint-Martin","latitude":43.73961,"longitude":0.81168},{"id":"osm_way_65333964","nom":"Église Sainte-Marie-Madeleine","latitude":43.72257,"longitude":0.77453},{"id":"osm_way_65335134","nom":"Église de Saint-Hilaire","latitude":45.46001,"longitude":-0.17239,"telephone":"+33545780127"},{"id":"osm_way_65346492","nom":"Église Saint-Caprais","latitude":44.09778,"longitude":0.27754},{"id":"osm_way_65354940","nom":"Église Saint-Michel","latitude":43.64299,"longitude":1.00501,"ville":"Beaupuy","codePostal":"32600","adresse":"Chemin du Village"},{"id":"osm_way_65356178","nom":"Église de la Nativité-de-Notre-Dame","latitude":43.61725,"longitude":1.03037,"adresse":"Chemin du Pésiguan"},{"id":"osm_way_65358910","nom":"Église Saint-Vincent","latitude":44.53531,"longitude":0.14748},{"id":"osm_way_65368816","nom":"Église Sainte-Quitterie","latitude":43.65333,"longitude":0.91753},{"id":"osm_way_65371013","nom":"Église Sainte-Radegonde","latitude":43.75289,"longitude":0.89225},{"id":"osm_way_65371277","nom":"Église Saint-Pierre","latitude":43.76969,"longitude":0.87482},{"id":"osm_way_65374010","nom":"Église Saint-Médard","latitude":46.35691,"longitude":0.39233},{"id":"osm_way_65384123","nom":"Église Notre-Dame","latitude":43.52007,"longitude":0.09147},{"id":"osm_way_65386928","nom":"Église Saint-Martin","latitude":43.57359,"longitude":0.1876},{"id":"osm_way_65409200","nom":"Église Saints-Abdon-et-Sennen","latitude":43.64631,"longitude":0.78375},{"id":"osm_way_65452467","nom":"Église Sainte-Bernadette","latitude":43.63648,"longitude":0.59574},{"id":"osm_way_65458729","nom":"Église Saint-Martial","latitude":46.03586,"longitude":1.20266},{"id":"osm_way_65461490","nom":"Église Saint-Paul","latitude":43.64663,"longitude":0.59257},{"id":"osm_way_65470768","nom":"Cathédrale Sainte-Marie","latitude":43.64628,"longitude":0.58601},{"id":"osm_way_65477766","nom":"Chapelle Notre-Dame-des-Neiges","latitude":43.64049,"longitude":0.58178},{"id":"osm_way_65478128","nom":"Chapelle d'Embats","latitude":43.63882,"longitude":0.52714},{"id":"osm_way_65485918","nom":"Église Saint-Orens","latitude":43.64824,"longitude":0.58663},{"id":"osm_way_65492862","nom":"Église Sainte-Marie","latitude":44.14105,"longitude":0.56218,"adresse":"Place de Galard"},{"id":"osm_way_65493523","nom":"Église Saint-Jean-Baptiste","latitude":43.38232,"longitude":0.50337},{"id":"osm_way_65495396","nom":"Église Saint-Christophe","latitude":43.61769,"longitude":-0.20391},{"id":"osm_way_65498895","nom":"Église Saint-Loup","latitude":43.57298,"longitude":0.82124},{"id":"osm_way_65499570","nom":"Église Notre-Dame","latitude":44.16869,"longitude":0.28585},{"id":"osm_way_65499690","nom":"Église Sainte-Quitterie","latitude":44.15048,"longitude":0.26475},{"id":"osm_way_65500366","nom":"Église Saint-Jean-Baptiste","latitude":44.17848,"longitude":0.2567},{"id":"osm_way_65503506","nom":"Église Saint-Gervais-Saint-Protais","latitude":43.37478,"longitude":0.65244},{"id":"osm_way_65505812","nom":"Église Saint-Pierre","latitude":43.56537,"longitude":1.05915},{"id":"osm_way_65508105","nom":"Église Notre-Dame-de-l'Assomption","latitude":43.5821,"longitude":0.61508,"ville":"Auterive","codePostal":"32550"},{"id":"osm_way_65512200","nom":"Église Notre-Dame","latitude":44.41705,"longitude":0.66837},{"id":"osm_way_65519318","nom":"Église Saint-Léger","latitude":45.69516,"longitude":-0.32826},{"id":"osm_way_65521727","nom":"Église Saint-Pierre","latitude":43.44478,"longitude":0.24963},{"id":"osm_way_65521733","nom":"Église Saint-Jacques","latitude":43.43841,"longitude":0.26651},{"id":"osm_way_65523828","nom":"Église Saint-Martin","latitude":45.68695,"longitude":-0.3375},{"id":"osm_way_65524318","nom":"Église Saint-Jean-Baptiste","latitude":43.83212,"longitude":0.90125},{"id":"osm_way_65525252","nom":"Église Saint-Antoine","latitude":45.6929,"longitude":-0.31583},{"id":"osm_way_65527527","nom":"Église","latitude":45.68428,"longitude":-0.33353},{"id":"osm_way_65528174","nom":"Église Sainte-Radegonde","latitude":43.83309,"longitude":0.42877},{"id":"osm_way_65532496","nom":"Église Saints-Pierre-et-Paul","latitude":43.86447,"longitude":-0.04536},{"id":"osm_way_65532563","nom":"Église Saint-Michel","latitude":43.84984,"longitude":-0.01865},{"id":"osm_way_65532611","nom":"Église du Sacré-Cœur","latitude":45.68877,"longitude":-0.32652},{"id":"osm_way_65543856","nom":"Église Saint-Orens","latitude":43.809,"longitude":0.7684},{"id":"osm_way_65545358","nom":"Église Notre-Dame","latitude":43.70361,"longitude":-0.23795},{"id":"osm_way_65550329","nom":"Église Sainte-Quitterie","latitude":43.74547,"longitude":0.06981},{"id":"osm_way_65551212","nom":"Église Saint-Jacques","latitude":43.87578,"longitude":0.79535},{"id":"osm_way_65561635","nom":"Église Saint-Laurent","latitude":43.36207,"longitude":0.38781},{"id":"osm_way_65561836","nom":"Église Sainte-Eulalie","latitude":43.36671,"longitude":0.40343},{"id":"osm_way_65561910","nom":"Église Saint-Martin de Barcugnan","latitude":43.37752,"longitude":0.40513},{"id":"osm_way_65567392","nom":"Église de la Castagnère","latitude":43.60954,"longitude":0.48946},{"id":"osm_way_65568384","nom":"Église Saint-Pierre","latitude":43.51179,"longitude":0.29402},{"id":"osm_way_65570125","nom":"Église Saint-Jean-Baptiste","latitude":43.61752,"longitude":0.44211},{"id":"osm_way_65572453","nom":"Église Sainte-Marie-Madeleine","latitude":43.79653,"longitude":0.14487,"ville":"Bascous","codePostal":"32190","adresse":"Passage de l'Église"},{"id":"osm_way_65580007","nom":"Église Sainte-Marie","latitude":43.57901,"longitude":0.2458},{"id":"osm_way_65580412","nom":"Basilique Saint-Fris","latitude":43.58096,"longitude":0.25202},{"id":"osm_way_65580654","nom":"Église Saint-André","latitude":43.66921,"longitude":0.32251},{"id":"osm_way_65604062","nom":"Église Saint-Pierre","latitude":43.48086,"longitude":1.43268},{"id":"osm_way_65607008","nom":"Église Saint-Pierre","latitude":43.45788,"longitude":1.43293},{"id":"osm_way_65614438","nom":"Église Saint-Georges","latitude":44.48478,"longitude":0.26678},{"id":"osm_way_65631030","nom":"Église Saint-Sébastien","latitude":43.44845,"longitude":0.34344},{"id":"osm_way_65631174","nom":"Église Saint-Exupère","latitude":43.45671,"longitude":0.32859},{"id":"osm_way_65633566","nom":"Église Notre-Dame-des-Pommiers","latitude":43.83774,"longitude":0.38591,"adresse":"Parvis de l'Église"},{"id":"osm_way_65636761","nom":"Église Saint-Loup","latitude":43.83663,"longitude":0.35003},{"id":"osm_way_65638768","nom":"Église Notre-Dame-des-Anges","latitude":45.87241,"longitude":0.8168},{"id":"osm_way_65649829","nom":"Église de Ricau","latitude":43.60091,"longitude":0.11537},{"id":"osm_way_65650400","nom":"Église de Coutens","latitude":43.569,"longitude":0.11194},{"id":"osm_way_65650985","nom":"Église Notre-Dame","latitude":43.58593,"longitude":0.09066,"ville":"Beaumarchés","codePostal":"32160","adresse":"Place de l'Église"},{"id":"osm_way_65652469","nom":"Église Saint-Jean-Baptiste","latitude":43.58052,"longitude":0.13151,"ville":"Beaumarchés","codePostal":"32160"},{"id":"osm_way_65653907","nom":"Église Saint-Pierre","latitude":43.94611,"longitude":0.28614,"adresse":"Route d'Herrin"},{"id":"osm_way_65654178","nom":"Église Notre-Dame de Vopillon","latitude":43.92684,"longitude":0.30187,"ville":"Vopillon","adresse":"Route de Lauraët"},{"id":"osm_way_65655832","nom":"Église Saint-André","latitude":43.43033,"longitude":0.15438,"ville":"Beccas","codePostal":"32730"},{"id":"osm_way_65658063","nom":"Église Saint-Abdon-et-Sennen","latitude":43.5727,"longitude":0.79954},{"id":"osm_way_65658192","nom":"Église","latitude":43.56698,"longitude":0.78915},{"id":"osm_way_65661600","nom":"Église de la Nativité-de-Notre-Dame","latitude":43.42373,"longitude":0.62299},{"id":"osm_way_65661862","nom":"Église Saint-Saturnin","latitude":45.8791,"longitude":0.87324},{"id":"osm_way_65662064","nom":"Église Saint-Martin","latitude":43.4396,"longitude":0.62723},{"id":"osm_way_65667963","nom":"Église de l'Assomption","latitude":43.45686,"longitude":0.43404},{"id":"osm_way_65669574","nom":"Église de l'Assomption","latitude":43.68968,"longitude":0.24063},{"id":"osm_way_65674525","nom":"Église Saint-Pierre","latitude":43.91701,"longitude":0.40593},{"id":"osm_way_65678167","nom":"Église Notre-Dame-de-la-Pitié","latitude":43.48196,"longitude":0.40723},{"id":"osm_way_65682171","nom":"Église Saint-Leu","latitude":43.66963,"longitude":-0.22042},{"id":"osm_way_65684921","nom":"Église Saint-Marcel","latitude":44.01315,"longitude":0.54957},{"id":"osm_way_65686149","nom":"Église Saint-Pierre","latitude":43.44152,"longitude":0.68836},{"id":"osm_way_65686180","nom":"Chapelle Sainte-Eulalie","latitude":43.45392,"longitude":0.69291},{"id":"osm_way_65686965","nom":"Église Saint-Pierre","latitude":43.7166,"longitude":0.02408},{"id":"osm_way_65688062","nom":"Église Saint-Laurent","latitude":43.4135,"longitude":0.19984},{"id":"osm_way_65692689","nom":"Église Saint-Jacques","latitude":43.54478,"longitude":0.87874},{"id":"osm_way_65695015","nom":"Église Saint-Clair","latitude":43.82317,"longitude":0.35383,"adresse":"Rue de la Fraternité"},{"id":"osm_way_65698315","nom":"Église de l'Assomption","latitude":43.40028,"longitude":0.61159},{"id":"osm_way_65700149","nom":"Église Saint-Jean-Baptiste","latitude":43.68061,"longitude":0.3987},{"id":"osm_way_65700265","nom":"Chapelle de Ramensan","latitude":43.7115,"longitude":0.38747},{"id":"osm_way_65700431","nom":"Église Saint-Martin","latitude":43.69563,"longitude":0.41813},{"id":"osm_way_65701349","nom":"Église Saint-Sabin","latitude":43.6743,"longitude":0.81382,"adresse":"Chemin de l'Église"},{"id":"osm_way_65704890","nom":"Église Saint-André","latitude":43.83354,"longitude":0.80577},{"id":"osm_way_65709436","nom":"Église Saint-Blaise","latitude":43.93365,"longitude":0.47737,"adresse":"Rue des Fleurs"},{"id":"osm_way_65709783","nom":"Église Saint-Michel","latitude":43.45453,"longitude":0.19578},{"id":"osm_way_65709890","nom":"Église de l'Assomption","latitude":43.4658,"longitude":0.19079},{"id":"osm_way_65751792","nom":"Église Saint-Barthélémy","latitude":43.78003,"longitude":0.4137},{"id":"osm_way_65752338","nom":"Église Saint-Germier","latitude":43.56243,"longitude":0.61501},{"id":"osm_way_65758820","nom":"Église Saint-André","latitude":43.81973,"longitude":-0.01425},{"id":"osm_way_65764125","nom":"Église Saint-Étienne","latitude":44.13332,"longitude":0.41474,"adresse":"Place de l'Église"},{"id":"osm_way_65766842","nom":"Église de Saint-Gô","latitude":43.6876,"longitude":0.02959},{"id":"osm_way_65767960","nom":"Église Saint-Martin","latitude":43.70481,"longitude":0.01061},{"id":"osm_way_65768349","nom":"Chapelle de Bouzonnet","latitude":43.69655,"longitude":0.023},{"id":"osm_way_65768436","nom":"Église Saint-Pierre","latitude":43.67887,"longitude":0.04095},{"id":"osm_way_65769381","nom":"Église Notre-Dame","latitude":44.25689,"longitude":0.29569},{"id":"osm_way_65770679","nom":"Église Saint-Jean-Baptiste","latitude":43.88615,"longitude":0.13959},{"id":"osm_way_65772433","nom":"Église Saint-Martin","latitude":44.3831,"longitude":0.2517},{"id":"osm_way_65773692","nom":"Église Saint-Blaise","latitude":43.8408,"longitude":0.72617},{"id":"osm_way_65775178","nom":"Église Saint-Vincent","latitude":44.37618,"longitude":0.23849},{"id":"osm_way_65778518","nom":"Chapelle Sainte-Thérèse","latitude":45.67759,"longitude":-0.32747},{"id":"osm_way_65789998","nom":"Chapelle des Templiers","latitude":45.67255,"longitude":-0.31225,"telephone":"+33545820571"},{"id":"osm_way_65816917","nom":"Église Saint-Jean-l'Évangéliste","latitude":43.6669,"longitude":0.39574},{"id":"osm_way_65817023","nom":"Église de Monbert","latitude":43.66002,"longitude":0.40966},{"id":"osm_way_65832794","nom":"Église Saint-André","latitude":43.85551,"longitude":0.68451},{"id":"osm_way_65845392","nom":"Église de Lagarde","latitude":43.82027,"longitude":0.61275},{"id":"osm_way_65878106","nom":"Église Saint-Sébastien","latitude":43.64863,"longitude":1.05037,"adresse":"Chemin de Cassemartin"},{"id":"osm_way_65884823","nom":"Collégiale Saint-Martin de L'Isle-Jourdain","latitude":43.61234,"longitude":1.08093},{"id":"osm_way_65969963","nom":"Église Saint-Pierre-Saint-Paul","latitude":44.44545,"longitude":0.61931},{"id":"osm_way_66016933","nom":"Église Saint-Michel","latitude":43.31802,"longitude":-0.55175},{"id":"osm_way_66071814","nom":"Église Saint-Girons","latitude":43.32241,"longitude":-0.57942},{"id":"osm_way_66088792","nom":"Église Saint-Blaise","latitude":43.27712,"longitude":-0.5086},{"id":"osm_way_66128912","nom":"Église","latitude":43.3525,"longitude":0.59926},{"id":"osm_way_66129138","nom":"Église Saint-Jean-Baptiste","latitude":43.35244,"longitude":0.59926},{"id":"osm_way_66139768","nom":"Église Saint-Orens","latitude":43.82909,"longitude":0.77136},{"id":"osm_way_66187009","nom":"Église Notre-Dame-de-l'Assomption","latitude":43.26309,"longitude":-0.58833},{"id":"osm_way_66189929","nom":"Église Sainte-Agathe","latitude":43.35469,"longitude":-0.61771},{"id":"osm_way_66194451","nom":"Abbatiale saint-Vincent","latitude":43.28673,"longitude":-0.65901},{"id":"osm_way_66198262","nom":"Église Saint-Pierre-et-Saint-Paul","latitude":43.42227,"longitude":0.84854},{"id":"osm_way_66205402","nom":"Église de Tabaux","latitude":43.71488,"longitude":0.34755},{"id":"osm_way_66205542","nom":"Église Saint-Orens de Laas","latitude":43.7011,"longitude":0.32731},{"id":"osm_way_66205641","nom":"Église Saint-Michel","latitude":43.71182,"longitude":0.33117},{"id":"osm_way_66205918","nom":"Église Sainte-Madeleine","latitude":43.63934,"longitude":-0.02237},{"id":"osm_way_66206178","nom":"Église Saint-Martin","latitude":43.63,"longitude":0.27763},{"id":"osm_way_66206622","nom":"Église de l'Assomption","latitude":43.86493,"longitude":-0.00165},{"id":"osm_way_66206942","nom":"Église Saint-Étienne","latitude":43.6109,"longitude":-0.05548},{"id":"osm_way_66207254","nom":"Église de la Nativité-de-Notre-Dame","latitude":43.90836,"longitude":0.33582,"adresse":"Place de l'Église"},{"id":"osm_way_66207560","nom":"Chapelle de Flarembel","latitude":43.89479,"longitude":0.36555,"adresse":"Allée de Flarembel"},{"id":"osm_way_66303459","nom":"Iglesia del Sagrado Corazón","latitude":43.34312,"longitude":-1.76115,"ville":"Irun","codePostal":"20305","adresse":"María Juncal Labandibar kalea"},{"id":"osm_way_66373278","nom":"Église Notre-Dame-de-l'Assomption","latitude":45.78197,"longitude":-0.63422,"telephone":"+33546920721"},{"id":"osm_way_66379287","nom":"Église Saint-Pierre","latitude":43.60893,"longitude":0.29556},{"id":"osm_way_66379479","nom":"Église Saint-Nicolas","latitude":43.57579,"longitude":0.724},{"id":"osm_way_66381536","nom":"Église Saint-Orens d'Aurenque","latitude":43.89182,"longitude":0.66215,"adresse":"Route d'Aurenque"},{"id":"osm_way_66382281","nom":"Église Saint-Hilaire","latitude":43.88306,"longitude":0.7045},{"id":"osm_way_66383988","nom":"Église Saint-Luperc","latitude":43.95676,"longitude":0.47021,"adresse":"Chemin de l'Église d'Aurens"},{"id":"osm_way_66384411","nom":"Église Notre-Dame-de-la-Nativité","latitude":43.97203,"longitude":0.45642,"adresse":"Avenue du 21 Juin 1944"},{"id":"osm_way_66387664","nom":"Chapelle du Ban","latitude":43.66684,"longitude":0.12167},{"id":"osm_way_66387698","nom":"Chapelle d'Estieux","latitude":43.6601,"longitude":0.13808},{"id":"osm_way_66387953","nom":"Église Saint-Jean-Baptiste","latitude":43.6742,"longitude":0.13044},{"id":"osm_way_66387954","nom":"Chapelle Saint-Laurent","latitude":43.69452,"longitude":0.13463},{"id":"osm_way_66389882","nom":"Église Sainte-Madeleine","latitude":43.97616,"longitude":0.60797},{"id":"osm_way_66391027","nom":"Église Saint-Jean-de-Béziey","latitude":43.93811,"longitude":0.0786},{"id":"osm_way_66391384","nom":"Église Saint-Laurent","latitude":43.93415,"longitude":0.11304},{"id":"osm_way_66391439","nom":"Église Sainte-Marie-Madeleine","latitude":43.94946,"longitude":0.08377},{"id":"osm_way_66393344","nom":"Église Saint-Martin d'Arech","latitude":43.9642,"longitude":0.08419},{"id":"osm_way_66393367","nom":"Église Notre-Dame de Pibèque","latitude":43.97054,"longitude":0.06979},{"id":"osm_way_66397296","nom":"Église Saint-Blaise","latitude":43.80541,"longitude":0.4331},{"id":"osm_way_66398621","nom":"Église Saint-Blaise","latitude":43.79638,"longitude":0.43773,"adresse":"Route du Vieux Village"},{"id":"osm_way_66404651","nom":"Église Saint-Pierre","latitude":43.63269,"longitude":1.13132,"adresse":"Chemin du Pountet"},{"id":"osm_way_66518882","nom":"Église Saint-Laurent","latitude":43.89231,"longitude":0.86161,"adresse":"Chemin de Ronde"},{"id":"osm_way_66523093","nom":"Église Sainte-Blandine","latitude":43.97914,"longitude":0.71519},{"id":"osm_way_66531523","nom":"Église Saint-Blaise","latitude":43.59484,"longitude":0.91666},{"id":"osm_way_66626283","nom":"Église Saint-Antoine de Lialores","latitude":44.01038,"longitude":0.4007,"adresse":"Rue du Palet Gascon"},{"id":"osm_way_66626437","nom":"Église Saint-Christophe","latitude":43.98256,"longitude":0.42034},{"id":"osm_way_66626865","nom":"Église de Grazimis","latitude":43.98729,"longitude":0.33633,"adresse":"Route de Grazimis"},{"id":"osm_way_66628209","nom":"Église Saint-Luper","latitude":43.95219,"longitude":0.34118,"ville":"Condom","codePostal":"32100","adresse":"Chemin de Saint-Luperc"},{"id":"osm_way_66632371","nom":"Chapelle de Gensac","latitude":43.98307,"longitude":0.43139},{"id":"osm_way_66632680","nom":"Église de Pomaro","latitude":43.97397,"longitude":0.31796,"adresse":"Chemin de Pomaro"},{"id":"osm_way_66635095","nom":"Église Saint-Jacques-de-la-Bouquerie","latitude":43.9551,"longitude":0.36523,"adresse":"Place du Cardinal"},{"id":"osm_way_66636479","nom":"Cathédrale Saint-Pierre","latitude":43.95791,"longitude":0.37279},{"id":"osm_way_66638582","nom":"Église Saint-Sernin de Cannes","latitude":44.00533,"longitude":0.36855},{"id":"osm_way_66638739","nom":"Église Saint-Pierre","latitude":44.01079,"longitude":0.41554,"adresse":"Chemin d'Argenton"},{"id":"osm_way_66764531","nom":"Église Notre-Dame","latitude":43.86035,"longitude":-0.16617},{"id":"osm_way_66765191","nom":"Église Saint-Laurent","latitude":43.37866,"longitude":0.30959},{"id":"osm_way_66767571","nom":"Église Saint-Pé","latitude":43.74644,"longitude":0.251},{"id":"osm_way_66769099","nom":"Église Saint-Étienne de Bats","latitude":43.72655,"longitude":0.23557,"adresse":"Chemin de Bats"},{"id":"osm_way_66769815","nom":"Église Saint-Antoine","latitude":43.72998,"longitude":0.21712,"adresse":"Boulevard de l'Est"},{"id":"osm_way_66876073","nom":"Église Saint-Vaize","latitude":45.8135,"longitude":-0.63144,"telephone":"+33546920721"},{"id":"osm_way_66886383","nom":"Église Saint-Jean-Baptiste","latitude":43.71954,"longitude":0.54502},{"id":"osm_way_66890214","nom":"Église Saint-Pierre","latitude":43.56923,"longitude":0.98578},{"id":"osm_way_66907178","nom":"Église Saint-Genès","latitude":43.69154,"longitude":0.54604},{"id":"osm_way_66933667","nom":"Église Saint-Sernin","latitude":43.69068,"longitude":-0.10276},{"id":"osm_way_66954647","nom":"Église Saint-Martial","latitude":45.27469,"longitude":0.03786,"telephone":"+33545602431"},{"id":"osm_way_66958809","nom":"Chapelle Notre-Dame","latitude":45.27175,"longitude":0.03892,"telephone":"+33545602431"},{"id":"osm_way_66966041","nom":"Église Saint-Martin","latitude":43.78831,"longitude":-0.0683},{"id":"osm_way_66966260","nom":"Église Saint-Jacques","latitude":43.79952,"longitude":-0.08966},{"id":"osm_way_66966567","nom":"Chapelle d'Izaute","latitude":43.77707,"longitude":-0.08732,"adresse":"Route de Laujuzan"},{"id":"osm_way_66966707","nom":"Église Saint-Pierre","latitude":43.77077,"longitude":-0.07247},{"id":"osm_way_66968911","nom":"Église Saint-Laurent","latitude":43.94308,"longitude":0.42502},{"id":"osm_way_66987300","nom":"Église Saint-Avit","latitude":45.24676,"longitude":0.05463,"telephone":"+33545602431"},{"id":"osm_way_66989336","nom":"Église Saint-Martin","latitude":45.23147,"longitude":0.05012,"telephone":"+33545602431"},{"id":"osm_way_66998098","nom":"Église Saint-Jean-Baptiste","latitude":43.88475,"longitude":-0.01351},{"id":"osm_way_66998640","nom":"Église de Tavernes","latitude":43.94429,"longitude":-0.01102,"adresse":"Route de l'Église"},{"id":"osm_way_66999651","nom":"Église de Sainte-Fauste","latitude":43.90635,"longitude":-0.03222,"adresse":"Route de Sainte-Fauste"},{"id":"osm_way_67000353","nom":"Église Saint-Martin","latitude":43.93408,"longitude":-0.0707},{"id":"osm_way_67000468","nom":"Église Saint-Christau","latitude":43.92729,"longitude":-0.05384},{"id":"osm_way_67002312","nom":"Église Saint-Pierre","latitude":43.95119,"longitude":-0.04398},{"id":"osm_way_67002992","nom":"Église Saint-Vivien","latitude":45.77188,"longitude":-0.59226,"telephone":"+33546920721"},{"id":"osm_way_67003987","nom":"Église du Sentex","latitude":43.91588,"longitude":-0.00715,"adresse":"Route du Haja"},{"id":"osm_way_67085403","nom":"Église Saint-Martin","latitude":45.80441,"longitude":1.22635},{"id":"osm_way_67097288","nom":"Église Sainte-Marie","latitude":45.74487,"longitude":-0.624,"telephone":"+33546920721"},{"id":"osm_way_67104831","nom":"Église Saint-Pallais","latitude":45.74523,"longitude":-0.62422,"telephone":"+33546920721"},{"id":"osm_way_67204653","nom":"Église Saint-Pierre","latitude":45.71667,"longitude":-0.55752},{"id":"osm_way_67244946","nom":"Église Saint-Georges","latitude":44.09081,"longitude":1.44928},{"id":"osm_way_67276864","nom":"Église Saint-Pierre","latitude":44.91773,"longitude":-0.42895},{"id":"osm_way_67498502","nom":"Église Saint-Pierre-et-Saint-Paul","latitude":43.05061,"longitude":0.43638},{"id":"osm_way_67501141","nom":"Église de Capvern-les-Bains","latitude":43.12104,"longitude":0.30771},{"id":"osm_way_67501418","nom":"Église Saint-Pierre","latitude":43.10294,"longitude":0.31401},{"id":"osm_way_67505762","nom":"Église Saint-Pierre-ès-Liens","latitude":46.21409,"longitude":1.08218,"ville":"Le Dorat","codePostal":"87210","adresse":"Place de la Collégiale"},{"id":"osm_way_67505793","nom":"Église","latitude":46.20753,"longitude":1.09436},{"id":"osm_way_67507275","nom":"Chapelle du Carmel","latitude":46.21373,"longitude":1.08053,"adresse":"Rue Saint-Michel"},{"id":"osm_way_67507827","nom":"Chapelle des Sœurs de Marie-Joseph et de la Miséricorde","latitude":46.21348,"longitude":1.08186},{"id":"osm_way_67515436","nom":"Chapelle Saint-Michel","latitude":42.90369,"longitude":0.35522},{"id":"osm_way_67515493","nom":"Église Saint-Exupère","latitude":42.90596,"longitude":0.3591},{"id":"osm_way_67515971","nom":"Église Notre-Dame","latitude":42.90376,"longitude":0.36057},{"id":"osm_way_67556762","nom":"Église Saint-Martin","latitude":45.65217,"longitude":-0.25091,"telephone":"+33545834007"},{"id":"osm_way_67653823","nom":"Église Saint-Maximin","latitude":46.21484,"longitude":1.16825},{"id":"osm_way_67826208","nom":"Église Saint-Martin","latitude":46.23049,"longitude":1.11685},{"id":"osm_way_67831279","nom":"Église Saint-Martin","latitude":45.46771,"longitude":0.78171},{"id":"osm_way_67832977","nom":"Église Saint-Pancrace","latitude":45.42742,"longitude":0.66392},{"id":"osm_way_67839650","nom":"Église Saint-Martial","latitude":45.41998,"longitude":0.75363},{"id":"osm_way_67843553","nom":"Église Notre-Dame-de-la-Nativité","latitude":45.42148,"longitude":0.53301},{"id":"osm_way_67844481","nom":"Église Notre-Dame de la Nativité","latitude":45.39609,"longitude":0.64224},{"id":"osm_way_67845472","nom":"Église Saint-Saturnin","latitude":45.42872,"longitude":0.7041},{"id":"osm_way_67846364","nom":"Église Saint-Martin","latitude":45.50469,"longitude":0.52453},{"id":"osm_way_67852524","nom":"Église Notre-Dame-de-la-Nativité","latitude":45.62181,"longitude":0.68912},{"id":"osm_way_67854562","nom":"Église Saint-Étienne","latitude":45.63053,"longitude":0.70513},{"id":"osm_way_67894972","nom":"Église Sainte-Madeleine","latitude":46.25484,"longitude":1.43714},{"id":"osm_way_67907850","nom":"Église Saint-Étienne","latitude":45.38131,"longitude":0.70726},{"id":"osm_way_67911706","nom":"Église Saint-Maurice","latitude":46.21435,"longitude":1.43144},{"id":"osm_way_67913549","nom":"Église Saint-Remi","latitude":45.6764,"longitude":-0.39367,"telephone":"+33545820571"},{"id":"osm_way_67915299","nom":"Église Saint-Christophe","latitude":45.39367,"longitude":0.69851},{"id":"osm_way_67915824","nom":"Chapelle Notre-Dame-du-Bon-Secours","latitude":45.3922,"longitude":0.69823},{"id":"osm_way_67979051","nom":"Église Saint-Jean","latitude":45.48082,"longitude":0.54988},{"id":"osm_way_67983138","nom":"Église Saint-Pardoux","latitude":45.43571,"longitude":0.44482},{"id":"osm_way_67983726","nom":"Église Saint-Laurent","latitude":45.45168,"longitude":0.45312},{"id":"osm_way_67984333","nom":"Église Saint-Avit","latitude":45.53218,"longitude":0.77486},{"id":"osm_way_67987545","nom":"Église Saint-Martin","latitude":45.55558,"longitude":0.61228},{"id":"osm_way_67989595","nom":"Église Saint-Saturnin","latitude":45.60247,"longitude":0.62675},{"id":"osm_way_68001303","nom":"Église Saint-Jean-Baptiste","latitude":45.59758,"longitude":0.53114},{"id":"osm_way_68002644","nom":"Église Saint-Julien-de-Brioude","latitude":45.62286,"longitude":0.56463},{"id":"osm_way_68007103","nom":"Église Notre-Dame-de-la-Nativité","latitude":45.65222,"longitude":0.60461},{"id":"osm_way_68012827","nom":"Église Saint-Martial","latitude":45.67608,"longitude":0.64156},{"id":"osm_way_68013943","nom":"Église Notre-Dame de l'Assomption","latitude":45.53748,"longitude":0.49412},{"id":"osm_way_68014656","nom":"Église Saint-Étienne","latitude":45.49418,"longitude":0.49973},{"id":"osm_way_68015201","nom":"Église Saint-Jean","latitude":45.47856,"longitude":0.47528},{"id":"osm_way_68015656","nom":"Église Saint-André","latitude":45.49566,"longitude":0.4412},{"id":"osm_way_68016631","nom":"Église Saint-Étienne","latitude":45.56875,"longitude":0.55985},{"id":"osm_way_68020139","nom":"Église Saint-Fiacre","latitude":45.45459,"longitude":0.55454},{"id":"osm_way_68020344","nom":"Église Saint-Fiacre","latitude":45.47461,"longitude":0.57952},{"id":"osm_way_68022870","nom":"Église Saint-Étienne","latitude":45.53145,"longitude":0.60654},{"id":"osm_way_68023363","nom":"Église Saint-Étienne","latitude":45.50596,"longitude":0.58386},{"id":"osm_way_68027739","nom":"Église Saint-Pierre et Saint-Paul","latitude":45.58874,"longitude":0.63182},{"id":"osm_way_68031491","nom":"Église Saint-André","latitude":45.58571,"longitude":0.75704},{"id":"osm_way_68033770","nom":"Église Saint-Pierre-ès-Liens","latitude":45.4299,"longitude":0.49953},{"id":"osm_way_68034661","nom":"Église de l'Exaltation-de-la-Sainte-Croix","latitude":45.4635,"longitude":0.42801},{"id":"osm_way_68037451","nom":"Église Saint-Martin d'Argentine","latitude":45.47249,"longitude":0.37672},{"id":"osm_way_68037529","nom":"Église Saint-Théodore","latitude":45.48435,"longitude":0.37976},{"id":"osm_way_68042115","nom":"Église Saint-Maurice","latitude":45.3918,"longitude":0.51367},{"id":"osm_way_68045032","nom":"Église Saint-Sulpice","latitude":45.46756,"longitude":0.50733},{"id":"osm_way_68046105","nom":"Église Saint-Félix","latitude":45.41525,"longitude":0.56835},{"id":"osm_way_68053842","nom":"Église Saint-Crépin et Saint-Crépinien","latitude":45.41855,"longitude":0.60002},{"id":"osm_way_68057802","nom":"Église Saint-Pierre","latitude":45.44828,"longitude":0.64272},{"id":"osm_way_68063125","nom":"Chapelle de la Nativité-de-la-Sainte-Vierge","latitude":46.16601,"longitude":1.09045},{"id":"osm_way_68063162","nom":"Église Saint-Ouen","latitude":46.16274,"longitude":1.06809},{"id":"osm_way_68067017","nom":"Église Saint-Martial","latitude":45.51796,"longitude":0.64903},{"id":"osm_way_68081019","nom":"Église Notre-Dame-de-l'Assomption","latitude":45.3705,"longitude":0.75098},{"id":"osm_way_68081694","nom":"Église Saint-Maurice du Petit Jumilhac","latitude":45.38407,"longitude":0.76381},{"id":"osm_way_68082283","nom":"Église Notre-Dame-de-l'Assomption","latitude":45.38785,"longitude":0.58945},{"id":"osm_way_68082424","nom":"Église de Boulouneix","latitude":45.3784,"longitude":0.5802},{"id":"osm_way_68085076","nom":"Église Saint-Cybard","latitude":45.36323,"longitude":0.46142},{"id":"osm_way_68086502","nom":"Église Saint-Pierre et Saint-Paul","latitude":45.36717,"longitude":0.44421},{"id":"osm_way_68086914","nom":"Église Saint-Barthélemy","latitude":45.39235,"longitude":0.46276},{"id":"osm_way_68088184","nom":"Église Saint-Pierre-ès-Liens","latitude":45.41439,"longitude":0.42681},{"id":"osm_way_68088403","nom":"Église Saint-Étienne","latitude":45.41335,"longitude":0.38363},{"id":"osm_way_68090963","nom":"Église Saint-Martin","latitude":45.39491,"longitude":0.37467},{"id":"osm_way_68095299","nom":"Église Notre-Dame","latitude":45.34733,"longitude":0.36589},{"id":"osm_way_68101873","nom":"Église Saint-Martial","latitude":45.357,"longitude":0.33909},{"id":"osm_way_68102920","nom":"Église Saint-Jean-Baptiste de Fontaine","latitude":45.43791,"longitude":0.35009},{"id":"osm_way_68102960","nom":"Église Saint-Martin de Champagne","latitude":45.42234,"longitude":0.31647},{"id":"osm_way_68104439","nom":"Église Saint-Blaise","latitude":43.03544,"longitude":0.38057},{"id":"osm_way_68105123","nom":"Église Notre-Dame de l'Assomption","latitude":45.41435,"longitude":0.30365},{"id":"osm_way_68105689","nom":"Église Saint-Saturnin","latitude":45.33075,"longitude":0.39279},{"id":"osm_way_68106479","nom":"Église Saint-Eutrope","latitude":45.32785,"longitude":0.31257},{"id":"osm_way_68108713","nom":"Église Saint-Pierre et Saint-Paul","latitude":45.31984,"longitude":0.28151},{"id":"osm_way_68110545","nom":"Église Saint-Pierre-ès-Liens de Bouteilles","latitude":45.34488,"longitude":0.30432},{"id":"osm_way_68111041","nom":"Église Saint-Étienne","latitude":45.39447,"longitude":0.33746},{"id":"osm_way_68114856","nom":"Église Saint-Paul","latitude":45.68579,"longitude":0.6957},{"id":"osm_way_68115136","nom":"Église Saint-Paixent","latitude":45.6727,"longitude":0.73077},{"id":"osm_way_68117697","nom":"Église Saint-Barthélemy","latitude":45.64039,"longitude":0.75438},{"id":"osm_way_68141904","nom":"Église Saint-Étienne","latitude":45.54234,"longitude":0.81966},{"id":"osm_way_68196954","nom":"Église Saint-Pierre de Faye","latitude":45.25276,"longitude":0.32094},{"id":"osm_way_68199742","nom":"Église Notre-Dame de la Paix","latitude":45.24857,"longitude":0.34133},{"id":"osm_way_68202471","nom":"Église Saint-Thyrse","latitude":46.13102,"longitude":1.27454,"adresse":"Place Saint-Thyrse"},{"id":"osm_way_68203120","nom":"Chapelle Notre-Dame de Toute Bonté","latitude":46.13438,"longitude":1.27337},{"id":"osm_way_68215824","nom":"Église Saint-Roch","latitude":46.1414,"longitude":1.03559},{"id":"osm_way_68246979","nom":"Église Saint-Amand","latitude":46.17382,"longitude":1.35428},{"id":"osm_way_68266995","nom":"Église Saint-Vivien","latitude":45.74996,"longitude":-0.63421,"telephone":"+33546930992"},{"id":"osm_way_68270410","nom":"Église de l'Assomption-de-la-Vierge","latitude":46.11757,"longitude":1.04858},{"id":"osm_way_68270469","nom":"Chapelle Notre-Dame de Lorette","latitude":46.11056,"longitude":1.05973},{"id":"osm_way_68272976","nom":"Chapelle des Pénitents","latitude":46.11839,"longitude":1.05011},{"id":"osm_way_68402063","nom":"Église Saint-Maurice","latitude":46.23558,"longitude":0.90636},{"id":"osm_way_68427568","nom":"Église Saint-Martial","latitude":46.26592,"longitude":1.37419},{"id":"osm_way_68440789","nom":"Église Sainte-Madeleine","latitude":44.84674,"longitude":0.48247},{"id":"osm_way_68442138","nom":"Chapelle Saint-Luc","latitude":44.84267,"longitude":0.48146},{"id":"osm_way_68528293","nom":"Église de l'Assomption","latitude":43.04265,"longitude":0.47262},{"id":"osm_way_68531577","nom":"Église de l'Invention-de-Saint-Étienne","latitude":43.06899,"longitude":0.44232},{"id":"osm_way_68560642","nom":"Église Saint-Pierre et Saint-Paul","latitude":44.77487,"longitude":0.52618},{"id":"osm_way_68565285","nom":"Église Notre-Dame de Nouilhan","latitude":43.0694,"longitude":0.40139},{"id":"osm_way_68565289","nom":"Église Saint-Jacques","latitude":43.06426,"longitude":0.41693},{"id":"osm_way_68565442","nom":"Chapelle Notre-Dame de Nouilhan","latitude":43.06894,"longitude":0.40199},{"id":"osm_way_68567791","nom":"Église Saint-Martin","latitude":44.79387,"longitude":0.49179},{"id":"osm_way_68574642","nom":"Église Saint-Jean-Baptiste","latitude":44.83812,"longitude":0.33239},{"id":"osm_way_68590783","nom":"Église Notre-Dame","latitude":44.85408,"longitude":0.48368},{"id":"osm_way_68595483","nom":"Église de Jésus-Christ des Saints des Derniers Jours","latitude":44.8513,"longitude":0.4913},{"id":"osm_way_68614998","nom":"Église Saint-Jacques-le-Majeur","latitude":44.9116,"longitude":0.43013},{"id":"osm_way_68627611","nom":"Église Saint-Jean-Baptiste","latitude":44.88425,"longitude":0.52747},{"id":"osm_way_68635457","nom":"Église Saint-Martial","latitude":44.77857,"longitude":0.69704},{"id":"osm_way_68646013","nom":"Église Saint-Louis","latitude":45.15626,"longitude":1.19143},{"id":"osm_way_68648223","nom":"Église Saint-Étienne","latitude":44.85292,"longitude":0.69017},{"id":"osm_way_68695719","nom":"Église du Martyre-de-Saint-Jean-Baptiste","latitude":43.0335,"longitude":0.39904},{"id":"osm_way_68719384","nom":"Église Notre-Dame-de-l'Assomption","latitude":44.82342,"longitude":0.67056},{"id":"osm_way_68725694","nom":"Église Saint-Avit","latitude":44.83065,"longitude":0.67379},{"id":"osm_way_68730891","nom":"Église Saint-Étienne","latitude":44.82273,"longitude":0.70652},{"id":"osm_way_68736618","nom":"Église Saint-Capraise","latitude":44.84189,"longitude":0.65401},{"id":"osm_way_68743967","nom":"Église Saint-Cybard","latitude":44.85237,"longitude":0.60848},{"id":"osm_way_68747098","nom":"Église Saint-Jean-Baptiste","latitude":44.9174,"longitude":0.40349},{"id":"osm_way_68763648","nom":"Église Notre-Dame-de-la-Nativité","latitude":44.85627,"longitude":0.40198},{"id":"osm_way_68791983","nom":"Église Saint-Laurent","latitude":44.81617,"longitude":0.4548},{"id":"osm_way_68800238","nom":"Église Notre-Dame-de-la-Nativité","latitude":44.85476,"longitude":0.56756},{"id":"osm_way_68813431","nom":"Église Saint-Pierre-ès-Liens","latitude":44.90538,"longitude":0.54941},{"id":"osm_way_68814053","nom":"Église de Saint-Mathieu","latitude":45.64395,"longitude":0.20428},{"id":"osm_way_68821248","nom":"Église Saint-Jacques-le-Majeur","latitude":44.95103,"longitude":0.35406},{"id":"osm_way_68825013","nom":"Église Saint-Martin","latitude":44.93018,"longitude":0.30737},{"id":"osm_way_68826356","nom":"Église Saint-Joseph-l'Artisan","latitude":45.64072,"longitude":0.18921,"telephone":"+33545944310"},{"id":"osm_way_68829839","nom":"Église Saint-Jean-Baptiste","latitude":43.04523,"longitude":0.40188},{"id":"osm_way_68855060","nom":"Chapelle Saint-Marc","latitude":43.10078,"longitude":-0.15326},{"id":"osm_way_68855390","nom":"Église","latitude":43.08449,"longitude":-0.16174},{"id":"osm_way_68856010","nom":"Église Saint-Pierre","latitude":43.10372,"longitude":-0.15971},{"id":"osm_way_68860706","nom":"Chapelle du château fort","latitude":43.09651,"longitude":-0.04876},{"id":"osm_way_68862459","nom":"Église du Sacré-Cœur","latitude":43.09648,"longitude":-0.04495},{"id":"osm_way_68865497","nom":"Église du Bon Pasteur","latitude":43.10608,"longitude":-0.06233},{"id":"osm_way_68876961","nom":"Église Saint-Roch","latitude":44.8263,"longitude":0.40429},{"id":"osm_way_68877103","nom":"Église Saint-Sylvain","latitude":44.84871,"longitude":0.39072},{"id":"osm_way_68879954","nom":"Église Notre-Dame-de-la-Nativité","latitude":44.9118,"longitude":0.2379},{"id":"osm_way_68881187","nom":"Église Saint-Méard","latitude":44.90868,"longitude":0.18234},{"id":"osm_way_68889943","nom":"Église Saint-Pierre-ès-Liens","latitude":44.85836,"longitude":0.06412},{"id":"osm_way_68893417","nom":"Église Saint-Pierre-ès-Liens","latitude":44.91834,"longitude":0.05501},{"id":"osm_way_68894549","nom":"Église Saint-Pierre","latitude":44.94617,"longitude":0.09124},{"id":"osm_way_68898149","nom":"Église Saint-Hilaire","latitude":44.97201,"longitude":0.03817},{"id":"osm_way_68899200","nom":"Église Saint-Géraud","latitude":44.95216,"longitude":0.22593},{"id":"osm_way_68900725","nom":"Église Saint-Victor","latitude":44.86758,"longitude":0.3722},{"id":"osm_way_68904935","nom":"Église Saint-Gilles","latitude":44.98424,"longitude":0.32417},{"id":"osm_way_68907512","nom":"Église Saint-Étienne","latitude":44.87273,"longitude":0.2492},{"id":"osm_way_68912156","nom":"Église Saint-Pierre et Saint-Paul","latitude":44.84755,"longitude":0.31732},{"id":"osm_way_68915415","nom":"Église Saint-Rémy","latitude":44.94561,"longitude":0.18693},{"id":"osm_way_68919112","nom":"Église Saint-Martin","latitude":44.952,"longitude":0.10785},{"id":"osm_way_68920395","nom":"Église Notre-Dame de l'Assomption","latitude":44.94867,"longitude":0.05291},{"id":"osm_way_68926792","nom":"Chapelle Saint-Roch","latitude":45.7022,"longitude":0.23732,"telephone":"+33545691078"},{"id":"osm_way_68935230","nom":"Église Sainte-Eulalie","latitude":45.71516,"longitude":0.20547},{"id":"osm_way_68936815","nom":"Église Saint-Léger","latitude":46.26559,"longitude":0.97405},{"id":"osm_way_68948928","nom":"Église Saint-Georges","latitude":45.03472,"longitude":0.36959},{"id":"osm_way_68994948","nom":"Église Saint-Genest","latitude":46.23885,"longitude":1.03462},{"id":"osm_way_69001648","nom":"Église Saint-Martin","latitude":43.15145,"longitude":-0.09239},{"id":"osm_way_69002327","nom":"Église Saint-Saturnin","latitude":43.13396,"longitude":-0.08058},